FID,city,lat,lon,pm2_5,AOD,AirTemp,DPTemp,RH,SeaLevelPr,WindDir,WindSpeed,NDVI,DEM,POINT_X,POINT_Y
0,Bengbu,32.940800000000003,117.360800000000000,17.500000000000000,0.3385940,176.3470001,-45.9953995,36.2233009,10221.7998047,274.5530090,32.5241013,1581,29,-1169870.111430000000000,-263835.768168999990000
1,Chaohu,31.600000000000001,117.866699999999990,24.800000000000001,0.5567400,183.0700073,-36.6348991,36.8101006,10225.5000000,305.7290039,24.3843994,2117,12,-1140491.590980000100000,-417506.261770999990000
2,Chizhou,30.661300000000001,117.477800000000000,34.100000000000001,0.9576530,192.4819946,-34.2612000,35.7560005,10229.7998047,88.0286026,21.6488991,2512,24,-1188171.732980000100000,-516125.522792999980000
3,Chuzhou,32.321899999999999,118.297800000000000,22.199999999999999,0.2161110,181.5899963,-49.1337013,34.8801003,10224.5000000,279.3080139,33.4025993,2463,22,-1091927.444010000000000,-342913.159963999990000
4,Datong,32.620800000000003,117.063199999999990,19.500000000000000,0.4760080,180.0639954,-38.8070984,36.9028015,10224.0000000,276.6870117,28.7563000,4064,38,-1201264.272750000000000,-295459.811917999990000
5,Gushu,31.560500000000001,118.481500000000000,24.500000000000000,1.3619601,190.8229980,-58.4817009,32.0377998,10228.0996094,288.4349976,32.2071991,2266,13,-1083963.510000000000000,-428871.509500999990000
6,Hefei,31.863900000000001,117.280800000000000,19.600000000000001,1.0386400,179.0180054,-29.0993996,38.8367996,10224.0000000,359.5350037,20.0200996,1942,22,-1191280.157150000100000,-381449.387945000020000
7,Huaibei,33.974400000000003,116.791700000000010,21.300000000000001,0.5625020,185.5130005,-75.2911987,30.1961002,10218.9003906,339.1159973,39.0612984,1781,51,-1207152.385449999900000,-143029.055618999990000
8,Huainan,32.626399999999997,116.996900000000000,20.399999999999999,0.7033070,180.5489960,-38.5261002,36.8754005,10224.2998047,274.2990112,29.0212002,2406,49,-1207239.336679999900000,-294024.184438999980000
9,Chengguanzhen,32.958900000000000,117.165700000000000,21.600000000000001,0.3508820,177.8300018,-45.4384003,36.0890007,10222.2998047,273.6749878,32.7499008,2059,20,-1187384.505679999900000,-259482.908663000010000
10,Huangshan,29.711400000000001,118.312500000000000,26.199999999999999,1.0821100,192.6230011,11.9110003,44.4809990,10226.5000000,249.1900024,31.2910995,1786,134,-1120870.655120000000000,-630393.058920999990000
11,Lucheng,31.233599999999999,117.280600000000010,29.399999999999999,1.0361100,185.3150024,-32.8296013,37.1278992,10226.5996094,229.0839996,21.9529991,2541,13,-1199372.180360000100000,-450789.000339000020000
12,Mingguang,32.780200000000001,117.963800000000010,19.500000000000000,0.3245350,174.6959991,-45.9958000,36.4827995,10221.5000000,273.8710022,32.7430992,3105,15,-1116922.092450000100000,-288607.707440000030000
13,Suixi,33.890700000000002,116.774700000000000,22.000000000000000,0.3297070,184.7550049,-72.1311035,30.7670994,10219.0000000,329.5069885,38.6827011,2383,32,-1209866.933509999900000,-152037.907317000000000
14,Suzhou,33.636099999999999,116.978900000000000,19.199999999999999,0.7066090,181.6340027,-64.9711990,32.2930984,10219.4003906,312.0409851,37.7859001,1797,32,-1195056.577540000000000,-182602.631082000010000
15,Tangzhai,34.432800000000000,116.591100000000000,17.300000000000001,0.5281150,184.1499939,-76.1202011,30.2507000,10218.2998047,330.1539917,37.6904984,2359,46,-1218508.292309999900000,-90041.341666299995000
16,Wuhu,31.337299999999999,118.373500000000010,26.199999999999999,0.5776690,191.3769989,-35.3289986,35.7421989,10229.4003906,288.5169983,22.1700001,2243,19,-1096597.235470000000000,-452248.043905999980000
17,Wusong,30.949999999999999,117.783300000000000,38.899999999999999,1.3006400,188.2619934,-31.1207008,36.9617004,10227.9003906,221.1119995,23.8341007,1940,10,-1156151.801010000100000,-488054.893822000010000
18,Xuanzhou,30.952500000000001,118.755300000000010,31.100000000000001,1.4868701,191.5939941,-31.3152008,36.4029007,10229.5000000,289.0130005,21.3472004,2539,27,-1065373.004149999900000,-498856.030266000020000
19,Changping,40.216099999999997,116.234700000000000,10.900000000000000,0.6740620,134.1779938,-131.2680054,28.5902996,10189.5000000,197.3529968,46.5267982,1710,66,-1157544.126620000000000,550489.810261999960000
20,Daxing,39.740299999999998,116.326899999999990,9.800000000000001,0.6259570,132.5030060,-130.6479950,28.8925991,10191.7001953,197.8739929,46.0742989,1845,43,-1157973.885300000000000,497188.413638999980000
21,Fangshan,39.686999999999998,115.996600000000000,10.300000000000001,0.3609980,128.9499969,-126.5410004,29.9631996,10190.2998047,197.9080048,41.6325989,1887,44,-1186310.830899999900000,495310.842985000000000
22,Liangxiang,39.735999999999997,116.132900000000010,10.300000000000001,0.5077610,130.5110016,-128.6589966,29.4414997,10190.7998047,197.5420074,43.7663994,1557,47,-1174157.238010000000000,499037.191068999990000
23,Mentougou,39.938200000000002,116.093100000000010,10.699999999999999,0.2246190,131.8489990,-129.7180023,29.1123009,10189.0996094,196.4060059,44.3348007,1723,112,-1173999.292440000000000,521701.226581000020000
24,Shunyi,40.121699999999997,116.647800000000000,7.600000000000000,0.7801490,137.9299927,-132.0639954,28.0086002,10191.0000000,199.9900055,49.9556007,1882,44,-1125010.669530000100000,535295.539415000010000
25,Tongzhou,39.904000000000003,116.661800000000000,8.100000000000000,0.8000000,136.9889984,-132.5079956,28.0620003,10191.2001953,199.7290039,49.3759995,1494,29,-1127442.935570000000000,511234.221848000020000
26,Botou,38.066699999999997,116.566599999999990,9.199999999999999,0.3415680,135.9989929,-89.0021973,35.0194016,10210.0000000,160.0019989,30.0007992,1170,18,-1165198.846739999900000,310403.507886999990000
27,Cangzhou,38.316699999999997,116.866699999999990,8.000000000000000,0.5214200,133.3399963,-95.9860001,34.2299995,10209.5996094,163.5480042,31.7523003,1188,11,-1135726.174420000100000,334368.377554000010000
28,Changli,39.704200000000000,119.150600000000000,8.100000000000000,0.1360150,106.9309998,-220.3130035,20.3733006,10211.5996094,260.0060120,22.3055992,1069,18,-922563.686736000000000,463076.551549999970000
29,Chengde,40.951900000000002,117.958800000000000,7.600000000000000,0.5734580,104.9860001,-198.8470001,23.0058994,10187.0000000,70.1230011,20.0058002,1624,317,-1003756.353320000000000,612139.133171000050000
30,Fengrun,39.833300000000001,118.116699999999990,11.600000000000000,0.5513380,109.6809998,-192.4459991,23.2933998,10208.7001953,201.4120026,20.5547009,1705,28,-1007380.875410000000000,487529.738544000020000
31,Langfang,39.509700000000002,116.694700000000000,10.100000000000000,0.3120430,124.7480011,-133.5540009,29.4655991,10199.7998047,184.1069946,44.6730995,1591,17,-1131158.165850000000000,467545.871127000020000
32,Linxi,39.711799999999997,118.449500000000000,12.400000000000000,0.3004990,108.9879990,-199.7819977,22.4878998,10209.2998047,215.9349976,21.2600002,1325,45,-981287.856008999980000,470760.535632000010000
33,Qinhuangdao,39.931699999999999,119.588300000000000,6.300000000000000,0.5569130,92.5886993,-183.1770020,26.3896999,10204.9003906,246.2929993,28.8829994,1092,5,-882836.518334000020000,484099.270024000030000
34,Renqiu,38.698900000000002,116.093600000000000,10.500000000000000,0.0558490,143.9409943,-104.4619980,31.3239002,10199.0996094,179.1190033,32.8763008,1236,8,-1194941.899690000100000,385636.067327000030000
35,Shanhaiguan,40.002499999999998,119.748900000000010,6.400000000000000,0.5488890,88.9468002,-173.8569946,28.1506996,10203.2998047,245.7369995,30.3736992,1385,13,-868465.676281000020000,490461.744507000020000
36,Songling,40.292999999999999,118.269099999999990,9.100000000000000,0.2327520,96.6517029,-192.3329926,24.7077007,10201.4003906,211.4320068,27.1163998,2091,133,-987954.985893000030000,536546.011934999960000
37,Tangjiazhuang,39.743299999999998,118.450999999999990,12.100000000000000,0.3910390,108.7310028,-198.9170074,22.6158009,10209.0996094,215.5240021,21.4109993,1475,68,-980713.979442000040000,474213.854966000010000
38,Tangshan,39.633299999999998,118.183300000000000,15.000000000000000,0.1628160,109.9860001,-194.7879944,22.9794006,10209.0000000,200.1779938,20.0401001,1899,37,-1004726.436020000000000,464829.737559999980000
39,Zhaogezhuang,39.765400000000000,118.411900000000000,12.000000000000000,0.1488620,108.8270035,-196.6439972,22.8761005,10208.9003906,211.1540070,21.2819004,1290,62,-983673.281608000050000,477041.080980000030000
40,Baoying,33.229199999999999,119.309200000000000,21.800000000000001,0.5059400,171.6490021,-48.3069000,36.5570984,10219.2998047,265.7609863,35.9686012,1999,6,-988573.759586000000000,-253595.110187999990000
41,City,31.646100000000001,120.742200000000000,54.399999999999999,0.5127040,164.9179993,-22.4764996,42.6094017,10223.4003906,236.0429993,49.8036003,1940,10,-872499.590631000000000,-442119.325482000010000
42,Changzhou,31.773599999999998,119.953999999999990,29.300000000000001,0.5908980,184.2500000,-42.5951004,35.5885010,10224.2001953,281.3039856,35.5091019,1558,6,-944751.048059999940000,-420697.053299000020000
43,Dazhong,33.199700000000000,120.457800000000010,26.000000000000000,0.5850480,147.0460052,-7.6901102,49.4187012,10222.9003906,63.2831001,57.9640007,1846,5,-883704.921225999950000,-267886.083679999980000
44,Dongkan,33.999699999999997,119.830800000000000,24.699999999999999,0.2110800,150.2599945,-45.4011002,40.6917000,10217.7998047,210.7120056,41.3704987,2147,5,-932488.776039000020000,-173598.682414999990000
45,Dongtai,32.852300000000000,120.309500000000000,24.899999999999999,0.5779420,147.0010071,1.9714700,51.7356987,10224.0000000,40.0191994,59.9982986,2065,7,-900852.514004000000000,-304929.854866000010000
46,Fengxian,34.703899999999997,116.587200000000000,15.699999999999999,0.4070360,180.5919952,-75.5735016,30.8005009,10217.2001953,309.0499878,34.1250000,2390,38,-1214888.887470000000000,-60132.761206800002000
47,Gaogou,34.017499999999998,119.188599999999990,22.600000000000001,0.2265860,169.7500000,-55.5298004,35.5923996,10218.7998047,276.6910095,33.7533989,2953,6,-990489.728597000010000,-165297.027111000000000
48,Gaoyou,32.789299999999997,119.441800000000000,18.100000000000001,0.5604500,160.8269958,-31.6378002,41.5158997,10221.5996094,174.0480042,46.2126007,1918,5,-981334.757631000010000,-303511.969546000010000
49,Guiren,33.669699999999999,118.188900000000000,26.100000000000001,0.3095160,173.2949982,-59.3760986,34.4014015,10218.7001953,291.5570068,34.0392990,3641,22,-1085240.969070000100000,-193051.539277000000000
50,Haizhou,34.581699999999998,119.128900000000000,20.399999999999999,0.5558730,128.5070038,-20.3181992,50.5009995,10220.7998047,99.5999985,40.5988007,1658,10,-989226.309308000030000,-102356.431718000010000
51,Hede,33.772199999999998,120.261799999999990,27.100000000000001,0.5029580,145.3229980,-34.5237007,43.8161011,10217.5000000,171.7120056,47.2876015,1910,2,-895742.599091000040000,-202794.145450999990000
52,Huai'an,33.588600000000000,119.019200000000000,26.899999999999999,0.6558560,181.9259949,-64.7510986,32.2869987,10219.0000000,319.7229919,30.0291996,1675,14,-1010874.062350000000000,-210930.864777000010000
53,Huilong,31.811100000000000,121.655000000000000,50.799999999999997,0.6586250,129.3569946,17.6506996,60.1832008,10226.2998047,93.4475021,65.7322006,2101,7,-785715.497665000030000,-431654.741331000000000
54,Hutang,31.534300000000002,119.489999999999990,34.500000000000000,0.4114230,194.8659973,-61.4460983,31.0363998,10225.0000000,319.3810120,30.0930004,5067,8,-990454.257109000000000,-442490.639929000000000
55,Jiangyan,32.506100000000004,120.142799999999990,24.100000000000001,0.6137970,149.0809937,-7.2782001,49.0756989,10223.5000000,66.4534988,57.6119003,1897,9,-919755.568349999960000,-341624.896619000010000
56,Jiangyin,31.911000000000001,120.263000000000010,47.700000000000003,0.6205970,168.8829956,-27.2539005,40.9376984,10222.9003906,225.7700043,43.5922012,1848,10,-914613.536207000030000,-408477.307786000020000
57,Jinsha,32.089799999999997,121.073500000000000,38.299999999999997,0.6872860,132.0670013,10.7195997,57.5684013,10225.0996094,102.4059982,63.2065010,2129,7,-837492.445526000000000,-396011.138564999970000
58,Juegang,32.317399999999999,121.185500000000000,35.799999999999997,0.4029320,127.3629990,16.3446007,60.3470993,10225.0996094,82.3162003,64.7310028,2313,8,-825001.420362000000000,-371809.867952000000000
59,Kunshan,31.377600000000001,120.954300000000000,63.100000000000001,0.5079530,176.3739929,-37.9790993,37.6453018,10224.0996094,287.2959900,49.5438995,1977,15,-855131.909891000020000,-473644.952591000010000
60,Licheng,31.428100000000001,119.483500000000010,35.500000000000000,0.7918780,195.0000000,-61.9950981,30.9358997,10225.0000000,319.9979858,30.0002003,1949,10,-992185.425903000050000,-454135.302704999980000
61,Mudu,31.256000000000000,120.518600000000010,56.100000000000001,0.2174960,177.1360016,-24.3395004,40.0546989,10222.9003906,277.9280090,42.8331985,1996,9,-897110.388310999960000,-483150.540847000030000
62,Nanjing,32.061700000000002,118.777800000000000,18.500000000000000,0.2745810,190.1510010,-73.1250000,29.9158993,10227.2998047,287.2109985,38.4961014,1240,23,-1050725.230460000000000,-376875.616416000000000
63,Nantong,32.030299999999997,120.874700000000000,29.000000000000000,1.1540800,144.2689972,-4.0997200,50.8813019,10223.7998047,148.1089935,57.4770012,1968,6,-856544.748798000040000,-400858.268166000020000
64,Pizhou,34.311399999999999,117.950300000000000,22.899999999999999,0.3378170,169.4830017,-71.6847000,32.9373016,10218.4003906,291.6400146,39.7062988,1564,27,-1098516.240560000100000,-119579.262072000000000
65,Qinnan,33.253100000000003,119.913300000000010,25.300000000000001,0.7288620,151.1739960,-20.1462994,45.7459984,10221.7998047,108.4530029,53.1020012,3168,2,-933053.626501000020000,-256909.325114000010000
66,Songling,31.193300000000001,120.717600000000000,56.600000000000001,0.2809720,176.2079926,-24.7038994,40.1458015,10223.0996094,281.8840027,45.5651016,3142,5,-879031.180062000060000,-491882.505087000030000
67,Suicheng,33.896299999999997,117.933100000000000,26.500000000000000,0.6270800,172.2010040,-64.6496964,33.6889992,10218.5000000,294.3049927,37.3240013,1774,22,-1105471.079250000000000,-165178.560494000000000
68,Suzhou,31.304099999999998,120.595400000000000,55.600000000000001,0.3420050,175.2469940,-24.9087009,40.2733994,10223.0000000,273.9169922,44.4039993,2034,9,-889455.618804999980000,-478546.377723000010000
69,Taixing,32.166699999999999,120.013600000000000,27.899999999999999,0.5125710,165.0310059,-27.2865009,41.6217003,10223.0000000,187.7859955,45.9292984,1312,6,-935189.888976000020000,-377878.674659000010000
70,Taizhou,32.490699999999997,119.908100000000000,21.100000000000001,0.4413630,152.9010010,-15.5131998,46.4137001,10223.0996094,98.7847977,54.3555984,1541,6,-941591.898074000030000,-341085.023818999990000
71,Tongshan,34.180500000000002,117.157100000000000,19.600000000000001,0.5774490,187.9049988,-83.6285019,28.6882992,10219.0000000,359.5490112,39.9819984,2127,37,-1171472.464830000000000,-124778.204092000000000
72,Wuxi,31.568899999999999,120.288600000000000,40.200000000000003,0.3381430,177.5729980,-31.3367004,38.6636009,10223.2998047,267.4649963,39.6619987,1355,12,-915607.446173000030000,-446481.413044999990000
73,Xiannu,32.428100000000001,119.560500000000000,15.400000000000000,0.6508320,166.3130035,-33.5176010,40.1735992,10223.0000000,191.4889984,44.9049988,2326,11,-974346.872458999980000,-344580.971773999980000
74,Xiaolingwei,32.032400000000003,118.854000000000000,20.399999999999999,0.2187050,190.6809998,-76.0301971,29.4263000,10227.5000000,288.0759888,38.8468018,2549,15,-1044015.396800000000000,-380925.170921000010000
75,Xinghua,32.939200000000000,119.834200000000000,21.300000000000001,0.7943980,149.4570007,-11.0869999,48.1189995,10223.0996094,72.9981003,56.7178001,2011,7,-943657.734935999960000,-290830.892102000010000
76,Xinpu,34.599699999999999,119.159400000000010,20.500000000000000,0.5462210,128.4190063,-20.1585007,50.5592003,10220.7998047,99.1769028,40.6246986,1356,6,-986270.479433999980000,-100676.638277000010000
77,Yancheng,33.357500000000002,120.157300000000010,25.800000000000001,0.3056710,148.7460022,-18.0174007,46.7058983,10221.5996094,98.4362030,54.3502007,2363,3,-909618.465486999950000,-247676.734147999990000
78,Yangzhou,32.397199999999998,119.435800000000000,14.300000000000001,0.7774110,171.6139984,-39.5292015,38.1431007,10223.2998047,220.8730011,41.9777985,1778,15,-986191.701424999980000,-346737.831629999970000
79,Yicheng,31.360600000000002,119.820200000000000,43.200000000000003,0.4612190,192.9900055,-53.6595993,32.4925003,10224.9003906,313.0799866,31.0361996,1171,6,-961450.839246000050000,-464953.056701000020000
80,Zhangjiagang,31.864999999999998,120.538900000000000,44.700000000000003,0.5274770,161.2700043,-19.7416000,43.8587990,10222.7998047,208.2100067,48.4706993,1914,11,-889381.361042000000000,-416109.643221999980000
81,Zhenzhou,32.280299999999997,119.170000000000000,16.600000000000001,0.7312540,182.3320007,-53.2507019,34.0829010,10225.0996094,266.3009949,38.2019005,2180,10,-1012018.637060000000000,-356913.988107000010000
82,Zhongxing,33.703899999999997,118.679199999999990,24.699999999999999,0.4500230,181.1119995,-63.5461998,32.5912018,10219.0000000,316.9429932,30.3299007,1721,17,-1040377.387380000000000,-194622.960055000000000
83,Baishan,41.938499999999998,126.419700000000010,9.000000000000000,0.6000000,38.4191017,-73.2848969,58.7736015,10167.4003906,73.6433029,27.0562992,1045,472,-295932.798491999970000,664553.523502000030000
84,Erdaojiang,41.776400000000002,126.031899999999990,12.800000000000001,0.6553690,44.0262985,-72.9460983,57.3661995,10164.7998047,123.6650009,33.2099991,1469,408,-328770.264269999990000,647881.764989000050000
85,Hepingjie,42.059699999999999,126.915800000000000,10.300000000000001,0.6203580,35.8955002,-74.6623001,59.0643997,10168.4003906,54.1475983,24.7975006,2149,729,-254484.873866999990000,676546.317679999980000
86,Linjiang,41.806899999999999,126.907799999999990,10.500000000000000,0.8609570,32.8065987,-79.8544998,58.4197006,10169.0000000,41.8077011,21.8066006,905,339,-256157.598520000000000,648625.214274000030000
87,Sanchazi,42.081699999999998,126.600300000000000,9.800000000000001,0.8388480,37.3390007,-75.2773972,58.4944992,10168.0000000,68.9753036,25.9899006,1802,557,-280391.213267999990000,679842.834743999990000
88,Anshan,41.123600000000003,122.989999999999990,23.500000000000000,1.6891500,53.1230011,-82.5522003,52.4822006,10187.2001953,289.0490112,32.3460999,1286,49,-585681.196650999950000,590017.027501999980000
89,Beipiao,41.791899999999998,120.779200000000000,9.400000000000000,1.6450500,68.9684982,-206.5149994,26.0027008,10198.7998047,316.2049866,23.5606995,1942,275,-761104.832023000000000,678977.937646999960000
90,Benxi,41.288600000000002,123.765000000000000,45.899999999999999,1.5018300,37.0190010,-33.2476997,71.8184967,10192.0000000,250.0469971,20.0125008,1566,199,-519889.600918999990000,603845.338653999960000
91,Chaoyang,41.570300000000003,120.458600000000000,12.400000000000000,1.1547600,76.9985962,-219.9709930,23.3551006,10199.0000000,319.9979858,20.0009995,694,163,-790042.911953000000000,657139.001026000010000
92,Dalianwan,39.028599999999997,121.694999999999990,23.100000000000001,0.5201680,46.1590996,-87.6975021,52.8340988,10209.9003906,22.1392994,79.7135010,1598,22,-714839.199274000010000,367096.904574999990000
93,Dandong,40.129199999999997,124.394700000000000,27.600000000000001,1.3747801,62.9203987,-40.6579018,61.5245018,10174.0000000,320.4719849,40.2401009,832,10,-475773.038566000000000,472416.429696000010000
94,Dashiqiao,40.637300000000003,122.502500000000000,15.500000000000000,1.2108600,64.5288010,-107.9219971,43.9327011,10200.7998047,354.2619934,49.0537987,1212,17,-630804.024713000050000,539350.024162000050000
95,Dongling,41.814399999999999,123.575800000000000,25.699999999999999,1.5711300,64.7751999,-119.4029999,41.4361000,10184.0000000,319.4169922,29.9717007,1595,52,-531261.530525999960000,662915.547192999980000
96,Fengcheng,40.453600000000002,124.071700000000010,29.000000000000000,1.4196100,54.5541992,-38.1589012,64.6999969,10171.5000000,310.5270081,40.6053009,1276,65,-500684.632076999990000,509933.576848000000000
97,Fushun,41.855800000000002,123.923300000000000,26.100000000000001,1.8247300,57.9440994,-99.6788025,47.1702995,10183.9003906,304.0780029,29.8684006,2037,87,-502310.259828999990000,665641.909191000040000
98,Gongchangling,41.116700000000002,123.450000000000000,34.299999999999997,1.2975301,42.3160019,-54.4930992,63.2583008,10188.7998047,262.4559937,23.9580002,3935,207,-547479.525231000040000,586581.222026000030000
99,Haicheng,40.851599999999998,122.747500000000000,17.899999999999999,1.0187100,60.8941994,-95.3367996,47.5499001,10194.2998047,326.3989868,43.3335991,931,33,-608339.637039999940000,561463.426371000010000
100,Heishan,41.689200000000000,122.112799999999990,9.699999999999999,1.4360700,59.5425987,-133.1600037,39.6011009,10190.7001953,297.2040100,32.7094994,902,26,-652825.486437999990000,657992.945625000050000
101,Huanren,41.264699999999998,125.366699999999990,22.300000000000001,1.1782500,46.4473000,-57.7448997,61.0931015,10165.4003906,209.4739990,38.0321999,2444,260,-386819.334180000010000,593753.923620000020000
102,Hushitai,41.932200000000002,123.511399999999990,20.800000000000001,1.3380200,63.8513985,-115.9489975,42.3372993,10184.0000000,316.9500122,29.9743996,2003,62,-535576.553793000060000,676264.726298999970000
103,Jinzhou,41.107799999999997,121.141700000000000,9.699999999999999,1.1655000,72.9965973,-202.7960052,26.0330009,10202.0000000,319.9890137,30.0009003,855,25,-739180.768047000050000,600835.298283000010000
104,Jiupu,41.066699999999997,122.950000000000000,22.899999999999999,0.9508600,54.3861008,-84.0400009,51.7983017,10187.7998047,293.7990112,34.2596016,1141,30,-589516.744739999990000,583974.845113000020000
105,Kuandian,40.728600000000000,124.784700000000000,28.300000000000001,1.4138300,32.0028000,-43.9640999,69.8154984,10178.0000000,319.9960022,59.9900017,1216,281,-438836.392662999980000,536921.396000999960000
106,Langtou,40.026100000000000,124.328599999999990,26.699999999999999,1.3727500,60.0815010,-34.3241997,64.2546005,10173.0000000,339.4129944,49.7113991,1641,13,-482094.692038999990000,461327.573110000000000
107,Lianshan,40.764299999999999,120.853300000000000,9.900000000000000,0.7758270,72.0905991,-175.3339996,30.1534004,10200.2001953,311.1329956,30.8938007,1218,17,-767022.832233999970000,565192.731040999990000
108,Liaoyang,41.271900000000002,123.173100000000010,27.399999999999999,1.7912000,49.7304001,-76.1493988,55.0093994,10187.0000000,279.7799988,27.5781002,942,30,-569165.709691000050000,605307.515121000000000
109,Liaozhong,41.506100000000004,122.724200000000000,16.199999999999999,1.3894700,57.1258011,-103.9100037,46.3624001,10186.7001953,295.5679932,31.9887009,1044,16,-604215.357652000040000,633858.327441000030000
110,Linghai,41.165300000000002,121.366699999999990,7.700000000000000,1.7449600,72.6100998,-194.5449982,27.2280998,10201.5996094,319.3139954,30.2406006,1202,26,-719918.474969999980000,605490.308276999970000
111,Lingyuan,41.240000000000002,119.401100000000000,7.900000000000000,0.1798680,75.4957962,-177.8820038,29.3020000,10197.9003906,266.6220093,27.2185993,1055,396,-881122.825333000040000,629861.042738000050000
112,Lushun,38.799999999999997,121.266700000000000,12.800000000000001,0.5578960,47.2906990,-88.4972000,52.3526001,10209.7998047,37.4151001,77.8323975,328,6,-753849.825236000000000,345041.974325000020000
113,Nanpiao,41.098199999999999,120.747900000000000,10.100000000000000,1.8752800,72.9320984,-194.5970001,27.1809006,10201.0996094,317.3819885,29.1534996,1932,94,-771874.271515000030000,602829.524160000030000
114,Nantai,40.924100000000003,122.804400000000000,19.500000000000000,1.3435900,59.0568008,-91.7505035,48.8095016,10191.9003906,315.4979858,40.6534996,1572,34,-602931.136886000050000,569117.201450999940000
115,Panshan,41.188099999999999,122.049400000000010,6.800000000000000,1.7078900,64.3831024,-125.4219971,40.2746010,10196.7998047,325.3699951,40.5264015,955,11,-663139.970456999960000,603161.545968999970000
116,Pulandian,39.395299999999999,121.966900000000000,12.300000000000001,0.7440790,52.0779991,-82.6303024,52.7140999,10201.5996094,108.5530014,67.0813980,1201,16,-687989.901791000040000,405695.761698000020000
117,Shenyang,41.792200000000001,123.432800000000000,21.199999999999999,1.2444000,64.8768997,-120.0449982,41.2836990,10184.0000000,319.6709900,29.9848995,1037,52,-543224.104465999990000,661254.139183999970000
118,Sujiatun,41.659199999999998,123.339200000000010,22.000000000000000,1.6215700,63.7822990,-114.5510025,42.6481018,10184.2001953,316.7730103,29.7653008,1029,41,-552073.468241999970000,647104.089980000050000
119,Wafangdian,39.618299999999998,122.008100000000000,11.900000000000000,0.4545690,56.5933990,-83.8993988,51.3117981,10195.5000000,180.2330017,56.6739006,1584,100,-682291.221175999960000,430064.471624000000000
120,Xiaoshi,41.297100000000000,124.120900000000010,40.200000000000003,1.2259901,39.8100014,-46.7985992,66.4222031,10188.9003906,258.1740112,23.1737003,1267,207,-490257.295525999970000,602940.293566999960000
121,Xingcheng,40.616700000000002,120.716700000000000,10.100000000000000,0.4559950,72.0329971,-160.2220001,32.5984001,10198.7001953,297.7890015,32.1549988,1460,10,-780104.216923999950000,550001.330702999960000
122,Xiuyan,40.292800000000000,123.274400000000000,21.699999999999999,1.1475900,55.8195000,-57.8944016,58.4752007,10176.7001953,290.5889893,39.8120995,1281,81,-569087.210515000040000,496522.751539000020000
123,Yebaishou,41.397500000000001,119.640800000000000,8.199999999999999,0.2592180,72.1605988,-183.8520050,28.8439999,10198.0996094,292.3009949,25.4969997,1372,414,-859336.761508999970000,645044.713723000020000
124,Yingkou,40.664800000000000,122.228300000000000,12.699999999999999,0.1081120,64.9992981,-111.9869995,42.9584007,10202.0000000,359.9849854,49.9973984,971,3,-653465.407145999950000,544193.592210000030000
125,Zhuanghe,39.700800000000001,122.991100000000000,17.100000000000001,1.3655800,56.1819992,-57.3140984,58.5427017,10176.4003906,259.9259949,43.4809990,1773,5,-598103.973010999970000,432733.419281999990000
126,Anqiu,36.434199999999997,119.192500000000000,14.800000000000001,0.3752470,82.6593018,-91.1928024,43.9594002,10238.2001953,101.8150024,33.3227005,1372,59,-961076.095777999960000,101714.677030000010000
127,Bianzhuang,34.848599999999998,118.044700000000010,16.500000000000000,0.4148340,164.9440002,-97.0329971,29.6518993,10218.9003906,291.6730042,46.5256996,2587,46,-1083013.536480000000000,-61358.786943100000000
128,Binzhou,37.366700000000002,118.016700000000000,4.800000000000000,0.5749590,117.9980011,-96.8153000,36.4868011,10221.9003906,152.9689941,30.6030998,1499,14,-1051257.954029999900000,216802.547752000010000
129,Boshan,36.483300000000000,117.833299999999990,21.699999999999999,0.3483740,135.8589935,-105.2639999,32.3282013,10222.2001953,271.2770081,29.0762005,2977,386,-1079543.090469999900000,121363.443248000000000
130,Changqing,36.557499999999997,116.727200000000000,12.500000000000000,0.4251360,156.2389984,-103.0569992,29.8903008,10211.0996094,117.3450012,11.7814999,1667,39,-1174872.585490000000000,142333.768545000000000
131,Chengtangcun,35.083599999999997,117.190700000000010,13.100000000000000,0.4639600,172.9199982,-89.3303986,29.7556992,10217.7998047,303.0830078,33.4963989,1870,73,-1155807.052760000100000,-25630.700765000001000
132,Chengyang,35.579400000000000,118.832800000000010,18.399999999999999,0.3443450,130.9550018,-78.5272980,37.7019005,10222.2998047,152.1269989,51.2542992,1446,112,-1003485.011510000000000,10897.383983000000000
133,Dengzhou,37.808199999999999,120.759100000000000,10.600000000000000,1.5289600,50.6104012,-108.8290024,46.6138992,10237.9003906,319.8729858,58.4124985,1118,23,-808271.895004000050000,239414.936382999990000
134,Dezhou,37.451300000000003,116.310500000000000,10.300000000000001,0.5254300,134.2720032,-51.7770004,42.3283997,10211.9003906,160.2149963,39.0077019,1245,24,-1196908.472110000000000,245799.643336000010000
135,Dongcun,36.776699999999998,121.159700000000000,9.000000000000000,0.3046330,70.0000992,-143.9850006,35.7414017,10228.0000000,290.0000000,50.0003014,1302,38,-784196.705848000010000,121988.619525000000000
136,Dongdu,35.850000000000001,117.700000000000000,19.800000000000001,0.0013612,148.0919952,-101.8919983,31.1541996,10220.9003906,288.3649902,33.1796989,2085,200,-1100041.933230000100000,52992.721553299998000
137,Feicheng,35.260599999999997,117.967500000000000,16.100000000000001,0.1796600,170.9960022,-124.9390030,25.1278992,10219.0000000,319.9849854,49.9973984,1771,114,-1084419.181799999900000,-15034.394393099999000
138,Gaomi,36.383299999999998,119.752799999999990,11.600000000000000,0.5381680,83.6949997,-105.9369965,40.6689987,10231.0996094,231.2519989,57.8320999,1293,25,-912395.176043999960000,90704.091015300000000
139,Hanting,36.770800000000001,119.210800000000010,12.000000000000000,1.3451900,76.0056992,-89.0139999,45.7949982,10242.0000000,70.0370026,30.0030003,1732,17,-955290.598910999950000,138726.774846999990000
140,Jiaozhou,36.283900000000003,120.003300000000000,9.400000000000000,0.5690750,77.7388992,-125.4700012,37.8908005,10231.0996094,315.9469910,75.0695038,1358,9,-891457.430662999980000,77394.146739300006000
141,Jiehu,35.542800000000000,118.455000000000000,18.300000000000001,0.7752690,149.1719971,-94.4044037,32.1800003,10220.4003906,255.8020020,44.6314011,1776,114,-1037454.769560000000000,10810.317833999999000
142,Jimo,36.389699999999998,120.462200000000000,8.699999999999999,0.4262030,75.1446991,-137.3670044,36.1062012,10231.7998047,337.8200073,79.3058014,1473,26,-849767.889810999970000,84999.775823499993000
143,Jinan,36.668300000000002,116.997200000000010,12.699999999999999,0.4863290,156.9969940,-108.9690018,28.9276009,10211.0000000,110.0139999,10.0036001,1310,33,-1149735.806150000100000,151320.385313000010000
144,Jining,35.405000000000001,116.581400000000000,18.899999999999999,0.6727030,180.8090057,-85.6354980,29.2873993,10217.5996094,312.9739990,20.9407997,1284,43,-1205014.292470000000000,17164.925172600000000
145,Laiwu,36.192799999999998,117.656899999999990,22.800000000000001,0.0446123,139.5599976,-105.0520020,31.8390007,10222.0000000,281.6109924,29.3372002,1919,181,-1099045.218099999900000,91291.086003999997000
146,Laixi,36.859200000000001,120.526900000000000,8.500000000000000,0.2978460,72.6679993,-119.9940033,39.8544006,10228.5000000,290.6690063,53.8944016,1982,54,-838930.641972000010000,136388.218320999990000
147,Laiyang,36.975800000000000,120.713600000000000,8.300000000000001,0.6789670,70.2424011,-123.6890030,39.5560989,10228.2001953,290.6789856,49.7899017,1667,40,-821286.485637999950000,147700.129562999990000
148,Linqu,36.515599999999999,118.539700000000000,15.300000000000001,0.5626610,116.1569977,-100.0699997,36.1986008,10227.9003906,224.2790070,32.1921997,1635,102,-1017304.710850000000000,117330.331278000000000
149,Linyi,35.063099999999999,118.342800000000000,17.199999999999999,0.3141250,160.4420013,-94.5018005,30.6205006,10219.2001953,273.4410095,47.2597008,1625,71,-1053626.547100000100000,-40949.596164800001000
150,Longgang,37.651800000000001,120.330600000000000,7.700000000000000,0.3041660,59.9939995,-147.7279968,36.7064018,10243.0000000,339.9379883,20.0590992,1198,4,-847190.328098000030000,225756.403872000000000
151,Luofeng,37.365000000000002,120.410000000000000,6.800000000000000,0.4681490,60.9635010,-134.9830017,38.9838982,10240.5996094,330.1380005,25.3889999,1745,68,-843533.742516000060000,193350.572340999990000
152,Mengyin,35.706899999999997,117.926400000000000,18.800000000000001,0.2018230,153.6670074,-105.3369980,29.8873005,10220.5000000,295.4190063,39.6624985,2273,183,-1082043.267870000100000,34670.796525999998000
153,Mingshui,36.716700000000003,117.500000000000000,15.000000000000000,0.4340210,146.1940002,-99.0492020,31.8607998,10214.2998047,153.3280029,19.1966000,1709,73,-1105303.324790000000000,150839.047495000010000
154,Mizhou,35.994700000000002,119.397499999999990,18.399999999999999,0.3826220,109.3779984,-87.0039978,39.7991982,10226.0000000,141.2059937,55.4039993,1406,62,-948368.897252999940000,51134.852275500001000
155,Nanding,36.748300000000000,118.055800000000000,15.000000000000000,0.3870260,127.3229980,-98.9521027,34.6395988,10222.0996094,222.6000061,30.1121998,1399,71,-1056453.181260000000000,148161.328237999990000
156,Nanma,36.184800000000003,118.154900000000000,20.300000000000001,0.1408890,135.0000000,-117.9869995,30.4535007,10225.0000000,319.9930115,30.0002995,1434,283,-1055457.610820000100000,84904.845266699995000
157,Ninghai,37.384200000000000,121.608600000000000,10.800000000000001,0.6862340,61.4659004,-90.4341965,48.5891991,10217.4003906,287.5610046,64.0878983,1346,13,-738725.524067000020000,185747.248452000000000
158,Ningyang,35.764200000000002,116.791400000000000,17.199999999999999,0.0103555,180.8659973,-87.4455032,29.0200996,10217.7998047,314.8699951,20.4342003,1582,64,-1181183.469020000000000,54165.597041100002000
159,Pingdu,36.784399999999998,119.946400000000000,9.100000000000000,0.3515460,78.8244019,-106.9540024,41.3655014,10231.7001953,228.8289948,49.9777985,1443,56,-890696.219930000020000,133264.704266999990000
160,Pingyi,35.500599999999999,117.630799999999990,16.600000000000001,0.6000000,166.9799957,-107.4020004,27.9150009,10218.7998047,305.8479919,43.6744003,1797,153,-1110987.916120000000000,15236.026531400001000
161,Pingyin,36.283099999999997,116.445300000000000,15.800000000000001,0.1627170,164.0240021,-82.8813019,31.9249992,10209.5000000,165.4230042,20.2534008,1267,44,-1203608.806889999900000,115553.887673000000000
162,Qingdao,36.066000000000003,120.369400000000000,10.199999999999999,0.5968180,75.8162003,-134.0140076,36.6116982,10231.5996094,334.1830139,78.8595963,1866,42,-861516.820681000010000,49997.176948900000000
163,Qingyang,37.495800000000003,121.258100000000000,11.300000000000001,0.6583390,60.7727013,-102.8949966,45.8254013,10226.9003906,295.7070007,52.7845001,1031,9,-768199.858330999970000,200811.860374999990000
164,Qingzhou,36.696700000000000,118.479699999999990,13.199999999999999,0.4307590,108.9440002,-96.9878006,37.9566994,10228.9003906,189.3430023,32.1292992,1420,98,-1020160.905790000000000,137951.215201999990000
165,Qufu,35.596699999999998,116.991100000000000,17.100000000000001,0.3212640,181.6679993,-87.9552002,28.8472996,10218.0000000,318.9590149,20.2007008,1666,69,-1166080.832400000000000,33303.635509300002000
166,Rizhao,35.427500000000002,119.455299999999990,18.199999999999999,0.3575020,123.9980011,-75.9060974,39.3838005,10225.0000000,20.1861000,69.9682007,1436,19,-949994.136260000060000,-12126.173636300000000
167,Shanting,35.075299999999999,117.457800000000010,11.500000000000000,0.2670600,169.6139984,-100.4599991,28.5673008,10218.5000000,306.3399963,42.8348999,2458,147,-1132211.700140000100000,-29680.588025400000000
168,Shengli,37.462699999999998,118.491699999999990,6.900000000000000,0.5984250,107.0770035,-97.8479996,38.1119003,10222.4003906,171.8439941,33.0909996,1574,8,-1008867.480550000000000,222374.244140000000000
169,Shizilu,35.171100000000003,118.828900000000000,18.500000000000000,0.5647490,131.7610016,-49.2697983,43.3227005,10221.0000000,123.0899963,45.7298012,1471,102,-1008922.982040000000000,-34165.618891200000000
170,Shouguang,36.880000000000003,118.737500000000000,12.500000000000000,1.0513300,85.1443024,-92.1507034,43.2630997,10237.0996094,106.7020035,31.4944000,1469,25,-995246.318223000040000,155523.904157000010000
171,Sishui,35.648899999999998,117.275800000000000,16.899999999999999,0.2000000,174.1730042,-90.8803024,29.3693008,10217.7998047,303.1069946,25.2789993,1323,114,-1140242.277650000100000,35689.693850000003000
172,Suozhen,36.953899999999997,118.104699999999990,10.100000000000000,0.1947260,120.8909988,-96.0575027,36.1563988,10221.9003906,185.5650024,30.6357994,1919,20,-1049364.449150000000000,170317.387057999990000
173,Tai'an,36.185299999999998,117.120000000000000,15.600000000000000,0.5414950,156.5489960,-94.5757980,31.1324005,10214.4003906,197.2760010,20.6287994,1150,140,-1146170.442379999900000,96647.454861699996000
174,Taozhuang,34.850000000000001,117.333299999999990,11.699999999999999,0.4773170,173.7030029,-87.5057983,29.9232006,10218.2001953,311.3989868,39.2588997,4065,52,-1146415.623020000100000,-53068.949453100002000
175,Tianfu,37.197200000000002,122.052300000000000,8.100000000000000,1.3796500,50.8110008,-66.6111984,57.3503990,10207.2998047,306.6359863,96.5665970,1336,41,-701664.728496999950000,161756.973100000000000
176,Weichanglu,37.180700000000002,119.942200000000000,4.400000000000000,0.6208550,70.0595016,-115.1800003,41.3143005,10234.9003906,271.2109985,34.2751999,1569,45,-886435.118966000040000,177121.458772999990000
177,Weifang,36.710000000000001,119.101900000000000,13.000000000000000,1.2829601,76.1088028,-89.1203995,45.7495003,10241.9003906,70.5726013,30.0431004,1050,30,-965581.346428000020000,133082.444408999990000
178,Weihai,37.509099999999997,122.113600000000010,17.699999999999999,0.3904640,45.5718002,-58.9555016,60.9808006,10205.2998047,314.3129883,108.0410004,-1810,12,-693400.142181999980000,195870.717469000000000
179,Wenshang,35.727499999999999,116.496100000000000,17.100000000000001,0.7433840,179.2389984,-84.4514999,29.6588001,10216.7001953,299.6539917,21.1601009,2405,44,-1207662.153329999900000,53741.295204900001000
180,Xiazhen,34.802199999999999,117.111700000000000,13.100000000000000,0.2435740,177.8959961,-82.7304001,30.0849991,10218.0996094,319.7890015,37.1613007,2526,37,-1166812.387069999900000,-55709.124147000002000
181,Xiazhuang,34.916100000000000,118.638900000000010,18.800000000000001,0.5884250,135.5440063,-46.6823997,43.1423988,10220.4003906,142.1829987,42.7668991,1789,61,-1029066.460140000000000,-60344.376414600003000
182,Xindian,36.797499999999999,118.294400000000000,11.100000000000000,0.2820720,116.5719986,-97.2015991,36.6488991,10225.2001953,201.3269958,31.6264992,2886,73,-1034982.316020000000000,151030.849605000000000
183,Xintai,35.900599999999997,117.751900000000010,20.399999999999999,0.2634160,144.1790009,-103.9219971,31.3752003,10221.7998047,292.3750000,32.5611992,1618,198,-1094771.907560000000000,57990.302985000002000
184,Yantai,37.476500000000001,121.440800000000000,11.000000000000000,0.6492570,61.3774986,-96.0575027,47.2756996,10221.9003906,289.1319885,57.6456985,1948,24,-752460.247626999980000,197250.284143000000000
185,Yanzhou,35.552799999999998,116.828599999999990,17.600000000000001,0.4415210,181.9989929,-87.9971008,28.8003006,10218.0000000,319.9939880,20.0009003,1472,54,-1181038.072170000100000,30422.311246300000000
186,Yatou,37.156599999999997,122.437600000000000,9.900000000000000,0.7115320,40.5334015,-49.5507011,65.3258972,10205.0000000,331.5299988,123.1480026,1728,13,-668210.269392000050000,154550.919111000000000
187,Yinzhu,35.878599999999999,119.975300000000000,25.399999999999999,0.6288980,96.4651031,-99.0740967,39.7258987,10227.0000000,210.8789978,67.9223022,1466,8,-898548.767436999940000,32823.788514799999000
188,Yishui,35.784700000000001,118.628100000000000,18.600000000000001,0.2091580,134.0520020,-92.8242035,34.6609001,10222.5996094,235.9230042,40.8703003,1588,152,-1019014.041170000000000,35696.927824799997000
189,Yucheng,34.928899999999999,116.465300000000000,15.600000000000000,0.5967600,179.6190033,-74.6947021,31.0634995,10215.9003906,289.7579956,28.4867992,2348,36,-1222382.119290000100000,-33827.600928699998000
190,Zaozhuang,34.864699999999999,117.554199999999990,11.800000000000001,0.5961600,170.1340027,-94.4326019,29.3672009,10218.5000000,306.3309937,43.0345993,1358,81,-1126539.770270000000000,-54023.371577799997000
191,Zhoucheng,35.912199999999999,116.311700000000000,16.300000000000001,0.5034710,175.0070038,-77.2399979,31.2956009,10211.0000000,224.6809998,22.1938000,3303,42,-1220996.249469999900000,76377.091390799993000
192,Zhoucun,36.816699999999997,117.816700000000000,14.400000000000000,0.2692740,132.3979950,-97.2416992,34.1595993,10219.0000000,192.5480042,27.4160004,2487,48,-1076323.786820000000000,158322.592054999990000
193,Zhuangyuan,37.305500000000002,120.827500000000000,8.400000000000000,0.9174840,63.9230995,-118.2720032,41.8339005,10232.2001953,304.6679993,42.4183998,1489,133,-807771.655543999980000,183231.800424999990000
194,City,35.994999999999997,119.402600000000010,18.500000000000000,0.3322250,109.2699966,-87.0643005,39.8065987,10226.0000000,141.4040070,55.5075989,1520,67,-947914.323987000040000,51118.405880400001000
195,Zibo,36.790599999999998,118.063300000000000,14.199999999999999,0.2343980,125.8960037,-98.0093994,35.0224991,10221.9003906,212.3020020,30.1693993,1456,50,-1055217.132610000000000,152747.175625000000000
196,Zoucheng,35.400599999999997,116.965599999999990,16.699999999999999,0.3213900,181.0619965,-87.7052002,28.9584999,10217.9003906,317.1870117,20.7859993,1479,77,-1171182.646220000000000,11997.316239800000000
197,Songjiang,31.035900000000002,121.214600000000000,50.600000000000001,0.8391390,178.9199982,-34.6966019,37.8250008,10223.9003906,302.4549866,48.1567001,2733,1,-833727.227357000000000,-513620.626549999990000
198,Zhujiajiao,31.107600000000001,121.057000000000000,55.399999999999999,0.6462520,178.6250000,-34.7812004,37.8581009,10223.9003906,298.4960022,48.1861992,2760,9,-847923.148454000010000,-504347.264940000020000
199,Hangu,39.248899999999999,117.789199999999990,8.300000000000001,0.3846820,113.6760025,-162.1320038,26.7626991,10207.5000000,192.1730042,32.5267982,1126,2,-1043477.754590000000000,426655.569089000000000
200,Tanggu,39.021099999999997,117.646900000000000,7.800000000000000,0.6587750,118.4369965,-142.5149994,28.9587002,10207.4003906,173.8359985,43.6218987,1446,16,-1058870.203950000000000,403114.119592999980000
201,Xianshuigu,38.984999999999999,117.382800000000000,8.600000000000000,0.4191030,120.7369995,-137.5989990,29.3873997,10207.7998047,162.2100067,48.9654007,1128,5,-1081696.683530000000000,402040.575913999990000
202,Yangcun,39.363900000000001,117.060300000000000,11.199999999999999,0.5125480,120.8099976,-138.1690063,29.2931004,10207.0000000,165.0520020,48.1365013,1742,5,-1102920.337110000000000,447332.044037999990000
203,Yangliuqing,39.137500000000003,116.999700000000000,13.800000000000001,0.7367880,120.9990005,-137.6779938,29.3414001,10207.9003906,160.3899994,49.8353004,1713,7,-1111579.857730000000000,423126.473011000020000
204,Deqing,30.544899999999998,119.959900000000000,27.699999999999999,0.4200680,193.8300018,-12.2498999,39.4863014,10223.0996094,325.7699890,42.9269981,2091,11,-956525.377569000000000,-556246.509290999970000
205,Fuyang,30.053300000000000,119.951899999999990,15.900000000000000,0.7711340,196.4799957,-3.6664500,40.6599007,10223.0996094,331.6809998,43.4691010,2539,22,-962091.213066000030000,-610309.570167000060000
206,Hangzhou,30.293600000000001,120.161400000000000,19.500000000000000,0.6636810,199.9609985,-9.4595404,38.9761009,10223.0000000,354.8770142,48.8078995,1993,14,-939936.843270999960000,-585891.292210999990000
207,Huzhou,30.870300000000000,120.093300000000000,42.100000000000001,0.2934350,188.2700043,-21.7740002,38.6487999,10223.2998047,305.7019958,39.0064011,2007,11,-940765.358088999990000,-521682.098470000030000
208,Jiaxing,30.752199999999998,120.750000000000000,45.600000000000001,0.7839320,186.5260010,-10.0754004,41.1663017,10222.5000000,313.8150024,43.9785004,2544,8,-880046.887801000030000,-540838.133034999950000
209,Lianghu,29.991499999999998,120.898400000000000,27.000000000000000,0.1748920,194.6080017,7.1871200,43.1374016,10222.7001953,323.1520081,31.8614006,5087,19,-872812.846380000000000,-626024.240901999990000
210,Linping,30.422499999999999,120.297200000000000,25.100000000000001,0.3417030,199.8910065,-9.8885498,38.9086990,10223.0000000,355.1700134,48.9530983,2255,18,-925867.428333000050000,-572989.826724000040000
211,Shangyu,30.015599999999999,120.871100000000000,27.399999999999999,0.6741650,195.0599976,5.3578200,42.6852989,10222.7001953,326.8429871,34.3161011,2819,13,-875196.071925999950000,-623124.405406999980000
212,Shaoxing,30.002400000000002,120.578599999999990,25.300000000000001,1.2565200,199.2279968,-4.6783900,39.9931984,10222.9003906,349.4219971,45.1496010,1817,20,-903109.256917000050000,-621910.368252999960000
213,Xiaoshan,30.167500000000000,120.258799999999990,19.000000000000000,1.6515000,200.7120056,-10.1267004,38.7286987,10223.0000000,358.5119934,49.5918999,1805,13,-931916.377977999970000,-600716.017918000000000
214,Xiashi,30.536300000000001,120.686400000000010,35.799999999999997,0.6028400,195.8359985,-7.1145501,40.1128998,10222.7001953,341.6749878,46.4929008,2667,8,-888024.833409999960000,-564068.160079000050000
215,Yuyao,30.050000000000001,121.149400000000000,27.800000000000001,1.2991000,188.4589996,14.6750002,45.8732986,10222.0996094,306.8030090,31.5683994,1955,41,-848436.589278999950000,-621794.540111999960000
216,Zhicheng,31.005400000000002,119.904900000000000,42.299999999999997,0.5160470,188.9880066,-34.2159996,36.3040009,10224.0996094,302.0000000,34.4580002,1739,13,-957118.869679000000000,-504953.891230000010000
217,Zhoushan,29.988700000000001,122.204899999999990,18.800000000000001,1.6091700,182.8439941,61.6371994,58.3973007,10220.0000000,289.8110046,30.0151005,2712,2,-748384.488952000040000,-637197.884589000020000
218,Busan,35.102800000000002,129.040300000000000,24.300000000000001,1.3107700,79.9991989,49.9794998,87.1958008,10152.0000000,258.9949951,6.0019398,-565,0,-87296.467489000002000,-99325.362726599997000
219,Asan,36.783600000000000,127.004200000000000,21.899999999999999,0.7194650,55.9832001,8.7028399,80.3104019,10141.0000000,262.0440063,53.6523018,2159,25,-266660.285608000010000,91223.949603800007000
220,Cheonan,36.806500000000000,127.152199999999990,20.000000000000000,0.9370260,63.1380997,-19.5846004,68.0036011,10136.7001953,254.2250061,42.3685989,2291,45,-253421.963381999990000,93373.957664999994000
221,Gongju,36.455599999999997,127.124700000000000,29.899999999999999,1.1356900,68.9810028,-16.4904003,67.1825027,10144.4003906,275.9460144,44.6552010,2802,23,-257034.861233000000000,54449.069834599999000
222,Hongsung,36.600900000000003,126.665000000000010,23.699999999999999,0.5361600,43.4040985,1.0456300,82.0780029,10151.5996094,291.1400146,61.7358017,2216,32,-297526.698693000010000,71903.607357000001000
223,Seosan,36.781700000000001,126.452200000000000,18.300000000000001,1.1353500,32.0684013,5.9626999,88.5218964,10153.0000000,318.7669983,79.8902969,2076,35,-315744.475276999990000,92661.878106400007000
224,Taisen-ri,36.349299999999999,126.597700000000000,28.399999999999999,1.7800500,52.0372009,-9.7182903,74.9674988,10156.0000000,270.1010132,26.3957996,2102,10,-304510.735275999990000,44154.040698999997000
225,Daegu,35.870300000000000,128.591100000000010,17.199999999999999,1.1743100,87.9787979,-12.8576002,62.7108002,10138.0000000,289.9440002,56.9702988,1833,45,-126931.739931000000000,-13503.903529200001000
226,Hwawon,35.801699999999997,128.500800000000000,18.100000000000001,1.1119100,85.9117966,-7.4031501,64.9570007,10138.9003906,284.4519958,54.0521011,2420,36,-135182.154841000010000,-21009.217218700000000
227,Daejeon,36.321399999999997,127.419700000000010,28.399999999999999,1.2961600,79.9673004,-31.7642994,59.4178009,10144.0000000,301.8989868,43.0014992,2325,71,-231080.980978000010000,38795.065071199999000
228,Chuncheon,37.874699999999997,127.734200000000000,23.899999999999999,1.6621799,36.4135017,8.8148603,87.9393005,10147.5996094,15.0653000,11.7580996,1672,96,-198812.868504000010000,210720.627077999990000
229,Hongch'on,37.691800000000001,127.885700000000000,21.100000000000001,0.9212790,42.8236008,5.0000401,83.8441010,10141.0000000,84.4916000,23.6443005,2886,137,-185985.413009000010000,190100.247605999990000
230,Kang-neung,37.755600000000001,128.896099999999990,15.800000000000001,0.7815510,47.5547981,6.6318998,82.6670990,10153.0000000,139.5659943,15.0439997,2078,15,-97037.505140800000000,195723.145717000010000
231,Kosong,38.378799999999998,128.467600000000000,16.300000000000001,0.7078130,29.8290005,13.9062996,92.8439026,10158.4003906,338.2929993,6.8821101,2706,21,-133554.189936000010000,265471.339570000010000
232,Sokcho,38.207000000000001,128.591800000000010,17.199999999999999,1.2860800,28.0519009,16.6322002,94.8150024,10159.0000000,358.6539917,5.0956302,1896,21,-123022.893968000000000,246223.120739000010000
233,Tonghae,37.543900000000001,129.106900000000000,19.500000000000000,0.8527270,34.9460983,16.5158997,91.7794037,10156.0000000,11.2229004,12.0766001,2980,20,-78733.079214800004000,172005.319962999990000
234,Wonju,37.351399999999998,127.945300000000000,15.900000000000000,0.4058520,49.4724007,2.4584301,80.3478012,10134.4003906,196.6289978,48.8992996,2063,135,-181571.455992000000000,152161.355573999990000
235,Gwangju,35.154699999999998,126.915600000000000,41.899999999999999,1.2562600,71.0003967,-14.9673996,67.0507965,10176.0000000,300.9859924,36.0302010,1824,49,-280262.903066000030000,-89549.900435100004000
236,Ansan-si,37.323599999999999,126.821900000000000,17.500000000000000,1.2778400,43.7935982,12.5778999,86.4923019,10134.0996094,249.5839996,46.9098015,2043,15,-280865.129556000000000,151737.038673000000000
237,Anseong,37.010800000000003,127.270300000000010,21.300000000000001,0.7436500,51.2613983,11.2343998,83.0460968,10139.7001953,243.2010040,48.9636993,2205,36,-242270.840883000000000,115777.321888000010000
238,Anyang-si,37.392499999999998,126.926900000000000,16.100000000000001,0.9757230,43.5679016,12.8641005,86.6987991,10133.7001953,228.7239990,42.3959007,1881,53,-271345.576339000020000,159094.363241999990000
239,Bucheon-si,37.498899999999999,126.783100000000000,16.199999999999999,1.7669200,37.0497017,11.7435999,88.8815002,10131.0000000,214.8679962,41.7910995,2141,16,-283625.994746999990000,171324.140626999990000
240,Gapyeong,37.831000000000003,127.510600000000000,21.500000000000000,1.0161700,39.8902016,5.0728202,85.0166016,10143.2001953,41.9958000,14.7088003,3625,69,-218550.388928000000000,206344.381813000010000
241,Goyang-si,37.656399999999998,126.834999999999990,16.399999999999999,1.8100300,33.0976982,11.5093002,90.4244995,10132.0000000,123.6259995,24.6131992,1887,18,-278465.155044000010000,188670.467085000010000
242,Guri-si,37.598599999999998,127.139399999999990,18.100000000000001,1.1575600,35.1500015,11.5029001,89.5656967,10132.7001953,116.7910004,21.2831993,2021,33,-251902.488790000000000,181421.377431000000000
243,Gwangju,37.409999999999997,127.257200000000000,17.800000000000001,1.3344700,35.9031982,9.8144798,88.5497971,10137.4003906,151.7870026,30.6674004,1748,48,-242148.139018999990000,160168.721825999990000
244,Hanam,37.539999999999999,127.205600000000000,17.699999999999999,0.8988800,35.9953003,10.0684004,88.6175995,10134.7001953,133.8609924,25.3588009,1966,33,-246271.320012999990000,174741.798879000010000
245,Hwado,37.652500000000003,127.307500000000000,20.399999999999999,0.5417330,33.3339996,5.9874001,88.0140991,10139.2001953,131.0489960,24.6697998,1937,84,-236939.081940000000000,186988.050317999990000
246,Hwaseong-si,37.206800000000001,126.816900000000000,21.600000000000001,1.9147100,46.1101990,14.8259001,86.4791031,10136.0996094,259.5660095,49.3768997,2338,22,-281743.196016000000000,138774.827418000000000
247,Icheon-si,37.279200000000003,127.442500000000000,20.300000000000001,1.3182800,21.1166000,8.9652300,94.4723969,10140.0000000,50.7257004,15.1188002,2159,70,-226193.852049999990000,145189.539202000010000
248,Kwangmyong,37.477200000000003,126.866400000000000,14.400000000000000,1.1398900,37.6847000,13.5518999,89.3749008,10130.9003906,146.5970001,27.6490002,1928,27,-276369.335280000000000,168674.193911000010000
249,Namyangju,37.636699999999998,127.214200000000010,19.300000000000001,1.2875100,33.0374985,8.1125202,89.0196991,10136.5000000,132.2910004,23.9659996,3073,61,-245195.237029000010000,185463.437173999990000
250,Osan,37.152200000000001,127.070600000000000,19.500000000000000,0.4683450,47.1113014,19.8146992,88.1121979,10138.7001953,267.8009949,51.0424995,1840,22,-259495.561735000000000,132003.901561000010000
251,Pubal,37.291699999999999,127.507800000000000,20.300000000000001,1.2689500,21.1173992,8.9369297,94.4593964,10140.0000000,50.6785011,15.1131001,1910,58,-220385.580827000000000,146428.995755999990000
252,Seongnam-si,37.438600000000001,127.137800000000000,14.000000000000000,0.8341820,39.5471001,11.7467003,87.8620987,10134.2998047,170.7929993,32.3753014,1906,77,-252584.283574000000000,163649.398670000000000
253,Suwon-si,37.291100000000000,127.008900000000000,15.400000000000000,1.2622200,46.9439011,13.0618000,85.4390030,10134.0000000,269.2489929,48.9122009,2011,58,-264468.745027000030000,147603.102553000000000
254,Uijeongbu-si,37.741500000000002,127.047400000000000,16.199999999999999,1.7148100,20.5881996,5.2361102,93.0617981,10141.7001953,156.0059967,22.9118004,2095,49,-259496.727301000010000,197537.588737999990000
255,Wabu,37.589700000000001,127.220299999999990,18.800000000000001,1.5094100,34.4592018,8.8454905,88.7397003,10135.7001953,131.6459961,24.4829006,2055,34,-244813.438930000000000,180226.482698999990000
256,Yangju,37.833100000000002,127.061700000000000,16.899999999999999,1.7450600,6.8730302,-0.1464890,96.7498016,10150.7998047,201.1230011,20.7021999,2121,75,-257921.141402000010000,207674.788342999990000
257,Yangp'yong,37.489699999999999,127.490600000000000,20.199999999999999,0.8890070,32.8891983,6.6312499,88.4635010,10139.5000000,108.7979965,24.7565994,1878,39,-221320.277787000000000,168469.498725999990000
258,Andong,36.566400000000002,128.722700000000000,15.199999999999999,1.0937700,55.0037003,28.9347000,88.6605988,10148.0000000,162.0240021,27.0041008,1806,97,-114058.170284000010000,63723.997986499999000
259,Eisen,35.967500000000001,128.930800000000000,12.800000000000001,0.8566220,81.6066971,3.9663799,69.8843002,10142.5000000,256.1319885,39.2846985,2195,84,-96213.026804599998000,-3085.976170550000000
260,Gimcheon,36.121800000000000,128.119800000000000,17.399999999999999,1.5607800,70.9962006,-4.4376798,70.4832993,10138.2001953,269.9339905,40.6292992,2376,80,-168839.902938000010000,15171.352394899999000
261,Gumi,36.113599999999998,128.336000000000010,12.800000000000001,1.7064400,72.0003967,20.8738003,79.0158997,10145.0000000,262.0020142,35.0115013,3163,62,-149446.798960999990000,13906.778870700000000
262,Gyeongsan-si,35.823300000000003,128.737799999999990,17.000000000000000,0.4398200,86.7617035,-8.3353596,64.4228973,10138.7001953,285.6809998,54.7821999,2082,58,-113784.802793000000000,-18910.437037100000000
263,Kyonju,35.842799999999997,129.211700000000010,14.800000000000001,0.8827820,81.9645004,17.0946007,74.2026978,10146.2001953,228.0740051,15.8119001,2404,43,-71049.709449300004000,-17191.666829000002000
264,Mungyeong,36.594600000000000,128.199500000000000,20.199999999999999,1.5032600,63.4113007,4.4310498,76.0781021,10136.7998047,254.3370056,46.1521988,2114,78,-160706.141146999990000,67596.384858999998000
265,Pohang,36.029200000000003,129.364800000000000,13.199999999999999,0.8145730,91.9943008,8.0142298,67.9632034,10145.0000000,229.9980011,15.0024996,2289,5,-57116.549027900001000,3432.830583510000000
266,Sangju,36.415300000000002,128.160599999999990,19.300000000000001,1.5577000,64.0020981,6.9733901,76.7854996,10134.0000000,269.9930115,50.9948006,1912,60,-164557.715472000010000,47729.314386300000000
267,Changnyeong,35.541400000000003,128.495100000000010,20.100000000000001,1.3104900,75.2723007,8.4576302,73.4545975,10145.9003906,242.8370056,34.6432991,3159,66,-136139.248079999990000,-49939.991313300001000
268,Changwon,35.228099999999998,128.681099999999990,18.500000000000000,1.1059901,63.4841995,21.1091995,82.2334976,10149.2001953,197.6380005,16.7059002,2478,29,-119780.431493000000000,-85014.177495700002000
269,Chinju,35.192799999999998,128.084700000000000,14.600000000000000,0.7981490,85.8806992,13.8385000,71.7976990,10153.0000000,249.7270050,31.0652008,2361,34,-174003.147476000010000,-88039.538704100007000
270,Kimhae,35.234200000000001,128.881100000000000,19.199999999999999,1.0722899,75.5653992,34.9194984,82.9928970,10151.0996094,239.4620056,11.9426003,2175,11,-101611.619888000000000,-84563.156195899996000
271,Kyosai,34.850299999999997,128.588600000000010,14.500000000000000,1.8187500,75.5632019,36.1108017,83.4529037,10153.7001953,150.5820007,38.8117981,3257,10,-128773.543899000000000,-126893.622431000000000
272,Miryang,35.493299999999998,128.748899999999990,16.300000000000001,1.5978700,74.4141998,14.8901997,75.9991989,10147.4003906,235.1170044,28.1809006,2758,14,-113251.348019000000000,-55612.157902500003000
273,Naeso,35.249699999999997,128.520000000000010,20.800000000000001,1.0558000,62.9261017,19.7887993,81.9369965,10149.0996094,195.8789978,16.9092007,2951,63,-134372.412998999990000,-82402.921082500005000
274,Sinhyeon,34.882500000000000,128.626700000000000,14.800000000000001,1.8022000,74.8800964,33.5589981,82.7282028,10153.2998047,160.9880066,36.0447006,4526,17,-125248.992201000000000,-123364.021385000000000
275,Ungsang,35.406100000000002,129.168600000000000,17.899999999999999,1.6412600,74.0311966,31.9106007,82.4152985,10149.0996094,228.5989990,10.4568996,2726,101,-75344.444378000000000,-65712.919000700000000
276,Yangsan,35.341999999999999,129.033600000000010,17.399999999999999,1.8085400,76.5604019,33.2034988,81.9644012,10150.7001953,241.5119934,12.4563999,2503,6,-87647.138681299999000,-72726.574276300002000
277,Incheon,37.456499999999998,126.705200000000000,15.100000000000000,1.8962600,37.0712013,10.9717999,88.5516968,10130.2001953,275.5899963,53.9441986,1477,44,-290651.622404999970000,166843.466432999990000
278,Seogwipo,33.253300000000003,126.561800000000010,45.799999999999997,1.5984900,122.9980011,51.9902992,72.5776978,10184.0000000,270.0119934,36.0101013,4168,71,-319501.264517000000000,-299650.743921999990000
279,Gunsan,35.978600000000000,126.711400000000000,36.200000000000003,0.9062840,60.4137001,4.3845100,77.1108017,10165.5996094,302.2059937,96.8252029,2391,12,-295741.066607000020000,2610.631246439999800
280,Iksan,35.943899999999999,126.954400000000010,43.700000000000003,1.3791200,61.5405998,1.3463300,75.6249008,10164.9003906,292.0769958,77.3764038,1959,19,-274030.066256000020000,-1955.799107670000000
281,Jeonju,35.821899999999999,127.148900000000000,42.399999999999999,1.3595001,62.0171013,3.8149300,76.3425980,10166.0000000,284.9670105,57.0452003,1998,44,-256940.211606000000000,-16044.434786200000000
282,Koch'ang,35.433300000000003,126.700000000000000,43.100000000000001,1.3597200,60.2971001,-16.8974991,69.7636032,10175.5996094,301.8729858,60.7234001,2704,43,-298802.089249000010000,-57950.817134600002000
283,Nangen,35.409999999999997,127.385800000000000,14.900000000000000,1.3121099,85.9965973,-35.9444008,56.6713982,10150.0000000,220.0149994,69.9944992,2181,102,-236822.824916000010000,-62424.450899600000000
284,Wanju,35.845100000000002,127.147499999999990,42.399999999999999,1.6777500,62.0125008,3.8573899,76.3594971,10166.0000000,284.9790039,57.0367012,2030,53,-256991.121026999990000,-13462.258948100000000
285,Hwasun,35.061300000000003,126.987500000000000,31.100000000000001,1.1131999,72.4225006,-12.5235004,67.3960037,10173.0996094,299.0390015,39.6727982,2506,74,-274049.715183000020000,-100133.201472999990000
286,Kwangyang,34.975299999999997,127.589200000000010,15.300000000000001,1.0813200,88.6828995,-4.0263100,65.1816025,10150.7001953,282.3429871,47.2993011,2970,17,-219579.704911999990000,-111214.053707000000000
287,Muan,34.990099999999998,126.479000000000000,43.799999999999997,0.9363220,73.6252975,-1.9541900,70.4664001,10181.2998047,327.3959961,69.2135010,3312,20,-320533.414047000000000,-106493.572809000000000
288,Suncheon,34.948099999999997,127.489500000000010,15.199999999999999,1.4968500,90.7250977,-7.0107498,63.6791992,10149.0996094,300.5979919,44.6242981,3470,16,-228730.762893000010000,-114007.705204000000000
289,Yeosu,34.762799999999999,127.665300000000000,11.300000000000001,1.2283100,89.8457031,0.1623960,66.1352005,10152.0996094,234.9250031,61.5668983,5272,14,-213202.565001000010000,-134999.326964000010000
290,Cheongju-si,36.637200000000000,127.489700000000000,23.500000000000000,1.0612100,79.8457031,-32.6939011,59.1862984,10139.0000000,281.6900024,32.0802994,1905,52,-223901.783912999990000,73731.954280899998000
291,Chinch'on,36.856699999999996,127.443299999999990,21.000000000000000,0.7259420,65.3004990,-25.1492996,65.5602036,10136.7001953,249.3820038,37.4286003,2041,71,-227386.274280999990000,98234.971409100006000
292,Okcheon,36.301200000000001,127.568000000000000,25.199999999999999,1.6595200,77.4692993,-24.3889999,62.2524986,10143.5000000,293.9320068,43.0724983,2462,96,-217864.506031000000000,36208.310117699999000
293,Seoul,37.566000000000003,126.978399999999990,15.400000000000000,1.5176700,36.9971008,16.9626007,91.1018982,10129.0000000,89.0800018,16.0163002,1502,39,-266183.778116000000000,178227.546347000000000
294,Ulsan,35.537199999999999,129.316700000000000,17.100000000000001,1.3236200,71.0528030,39.4440002,86.5049973,10148.0000000,217.1230011,4.1269102,1541,11,-61822.919240600000000,-51241.235208799997000