FID,city,lat,lon,pm2_5,AOD,AirTemp,DPTemp,RH,SeaLevelPr,WindDir,WindSpeed,NDVI,DEM,POINT_X,POINT_Y
0,Bengbu,32.940800000000003,117.360800000000000,17.500000000000000,0.0693625,87.8699036,-16.0667000,61.7924995,10236.7998047,134.0780029,20.6727009,1581,29,-1169870.111430000000000,-263835.768168999990000
1,Chaohu,31.600000000000001,117.866699999999990,24.800000000000001,0.0001000,96.0326996,1.8561100,64.8341980,10246.2001953,71.3102036,13.4497004,2117,12,-1140491.590980000100000,-417506.261770999990000
2,Chizhou,30.661300000000001,117.477800000000000,34.100000000000001,0.5676850,126.2720032,17.4887009,60.9640007,10244.0996094,53.7162018,10.6099997,2512,24,-1188171.732980000100000,-516125.522792999980000
3,Chuzhou,32.321899999999999,118.297800000000000,22.199999999999999,1.0578700,90.6561966,-9.4928904,62.9547005,10246.5000000,66.0400009,16.0063000,2463,22,-1091927.444010000000000,-342913.159963999990000
4,Datong,32.620800000000003,117.063199999999990,19.500000000000000,0.0001000,89.0475998,-6.6981802,64.2574997,10238.2001953,136.6040039,18.8059006,4064,38,-1201264.272750000000000,-295459.811917999990000
5,Gushu,31.560500000000001,118.481500000000000,24.500000000000000,0.3733920,94.6636963,-12.2080002,61.0382996,10250.2998047,26.7148991,10.6391001,2266,13,-1083963.510000000000000,-428871.509500999990000
6,Hefei,31.863900000000001,117.280800000000000,19.600000000000001,0.1419400,90.6408997,6.7686100,67.9798965,10243.5000000,117.0989990,14.0752001,1942,22,-1191280.157150000100000,-381449.387945000020000
7,Huaibei,33.974400000000003,116.791700000000010,21.300000000000001,0.0377813,88.4832993,-37.5138016,55.6179008,10229.4003906,142.1940002,12.3823996,1781,51,-1207152.385449999900000,-143029.055618999990000
8,Huainan,32.626399999999997,116.996900000000000,20.399999999999999,0.0485809,89.1760025,-6.1293998,64.3933029,10238.0000000,138.7270050,18.7616005,2406,49,-1207239.336679999900000,-294024.184438999980000
9,Chengguanzhen,32.958900000000000,117.165700000000000,21.600000000000001,0.0645500,89.2586975,-15.2308998,61.6510010,10236.0996094,138.9320068,19.9864006,2059,20,-1187384.505679999900000,-259482.908663000010000
10,Huangshan,29.711400000000001,118.312500000000000,26.199999999999999,0.7092200,116.5490036,59.9905014,77.4772034,10250.4003906,174.6719971,11.0447998,1786,134,-1120870.655120000000000,-630393.058920999990000
11,Lucheng,31.233599999999999,117.280600000000010,29.399999999999999,0.3159200,108.0869980,14.7786999,65.2675018,10244.4003906,87.3669968,11.5120001,2541,13,-1199372.180360000100000,-450789.000339000020000
12,Mingguang,32.780200000000001,117.963800000000010,19.500000000000000,0.1144450,85.6159973,-14.9872999,62.7456017,10240.9003906,115.0070038,22.9883995,3105,15,-1116922.092450000100000,-288607.707440000030000
13,Suixi,33.890700000000002,116.774700000000000,22.000000000000000,0.2000000,90.5542984,-36.1086998,55.4740982,10229.7001953,143.4559937,13.5375996,2383,32,-1209866.933509999900000,-152037.907317000000000
14,Suzhou,33.636099999999999,116.978900000000000,19.199999999999999,0.1968820,90.3794022,-31.7558994,56.6893005,10230.9003906,143.4450073,15.5881996,1797,32,-1195056.577540000000000,-182602.631082000010000
15,Tangzhai,34.432800000000000,116.591100000000000,17.300000000000001,0.0001000,89.8235016,-39.8014984,54.6778984,10228.7001953,143.7839966,13.6367998,2359,46,-1218508.292309999900000,-90041.341666299995000
16,Wuhu,31.337299999999999,118.373500000000010,26.199999999999999,0.1222610,95.3656006,-1.9269000,63.8792992,10249.0996094,41.8311996,11.7937002,2243,19,-1096597.235470000000000,-452248.043905999980000
17,Wusong,30.949999999999999,117.783300000000000,38.899999999999999,0.4314920,111.9710007,15.7959995,64.4517975,10244.9003906,75.7867966,12.1921997,1940,10,-1156151.801010000100000,-488054.893822000010000
18,Xuanzhou,30.952500000000001,118.755300000000010,31.000000000000000,0.6970500,96.2245026,12.6276999,68.1408997,10248.7998047,58.2778015,13.2386999,2539,27,-1065373.004149999900000,-498856.030266000020000
19,Changping,40.216099999999997,116.234700000000000,10.800000000000001,1.3138400,70.7434006,-105.8119965,43.1567993,10180.2998047,182.9440002,20.2394009,1710,66,-1157544.126620000000000,550489.810261999960000
20,Daxing,39.740299999999998,116.326899999999990,9.800000000000001,0.0585175,70.1374969,-103.5780029,43.7594986,10181.0000000,183.6510010,20.4986000,1845,43,-1157973.885300000000000,497188.413638999980000
21,Fangshan,39.686999999999998,115.996600000000000,10.300000000000001,0.0670747,69.4209976,-101.3909988,44.3824005,10182.5996094,192.2859955,21.6481991,1887,44,-1186310.830899999900000,495310.842985000000000
22,Liangxiang,39.735999999999997,116.132900000000010,10.300000000000001,0.0340945,69.8467026,-102.7450027,43.9992981,10181.5996094,187.2769928,20.9451008,1557,47,-1174157.238010000000000,499037.191068999990000
23,Mentougou,39.938200000000002,116.093100000000010,10.699999999999999,0.9322280,70.4755020,-104.6669998,43.4562988,10180.7998047,185.8390045,20.5820999,1723,112,-1173999.292440000000000,521701.226581000020000
24,Shunyi,40.121699999999997,116.647800000000000,7.600000000000000,0.2000000,70.9905014,-105.9810028,43.0719986,10180.0000000,180.0339966,20.0023994,1882,44,-1125010.669530000100000,535295.539415000010000
25,Tongzhou,39.904000000000003,116.661800000000000,8.100000000000000,0.0384180,70.8509979,-105.6080017,43.1795006,10180.0996094,180.4369965,20.0445995,1494,29,-1127442.935570000000000,511234.221848000020000
26,Botou,38.066699999999997,116.566599999999990,9.199999999999999,0.0001000,72.0000992,-100.9929962,43.9510994,10195.0000000,140.0010071,30.0000000,1170,18,-1165198.846739999900000,310403.507886999990000
27,Cangzhou,38.316699999999997,116.866699999999990,8.000000000000000,0.0001000,71.7248001,-97.5070038,44.7738991,10195.5000000,142.4290009,29.9037991,1188,11,-1135726.174420000100000,334368.377554000010000
28,Changli,39.704200000000000,119.150600000000000,8.100000000000000,0.0001000,42.8049011,-66.1085968,59.6498985,10196.9003906,200.2709961,20.2161999,1069,18,-922563.686736000000000,463076.551549999970000
29,Chengde,40.951900000000002,117.958800000000000,7.600000000000000,0.1109830,64.9949036,-168.8800049,32.1972008,10173.0000000,180.0119934,10.0031004,1624,317,-1003756.353320000000000,612139.133171000050000
30,Fengrun,39.833300000000001,118.116699999999990,11.600000000000000,0.1812430,48.4332008,-84.2024994,53.1921005,10192.4003906,198.4819946,20.2751007,1705,28,-1007380.875410000000000,487529.738544000020000
31,Langfang,39.509700000000002,116.694700000000000,10.100000000000000,0.0127417,67.7879028,-98.7143021,45.3116989,10183.4003906,185.3730011,21.3588009,1591,17,-1131158.165850000000000,467545.871127000020000
32,Linxi,39.711799999999997,118.449500000000000,12.400000000000000,0.0001000,43.8283997,-70.3413010,58.1547012,10196.2001953,199.8789978,20.2506008,1325,45,-981287.856008999980000,470760.535632000010000
33,Qinhuangdao,39.931699999999999,119.588300000000000,6.300000000000000,0.1319170,39.4257011,-72.3386993,58.7722015,10196.5000000,204.2279968,22.0452995,1092,5,-882836.518334000020000,484099.270024000030000
34,Renqiu,38.698900000000002,116.093600000000000,10.500000000000000,0.0137121,69.8678970,-91.6260986,46.4873009,10195.4003906,156.8809967,28.8432007,1236,8,-1194941.899690000100000,385636.067327000030000
35,Shanhaiguan,40.002499999999998,119.748900000000010,6.400000000000000,0.0001000,37.1258011,-73.2671967,59.1315002,10196.4003906,206.9819946,23.2551003,1385,13,-868465.676281000020000,490461.744507000020000
36,Songling,40.292999999999999,118.269099999999990,9.100000000000000,0.0001000,54.6701012,-110.9059982,45.2817993,10183.2001953,195.0059967,16.5842991,2091,133,-987954.985893000030000,536546.011934999960000
37,Tangjiazhuang,39.743299999999998,118.450999999999990,12.100000000000000,0.0001000,43.9775009,-71.3177032,57.8380013,10196.0996094,199.8899994,20.2612000,1475,68,-980713.979442000040000,474213.854966000010000
38,Tangshan,39.633299999999998,118.183300000000000,15.000000000000000,0.0001000,45.6501999,-75.5742035,56.2102013,10195.2001953,199.0399933,20.5482006,1899,37,-1004726.436020000000000,464829.737559999980000
39,Zhaogezhuang,39.765400000000000,118.411900000000000,12.000000000000000,0.0001000,44.3532982,-73.0645981,57.2466011,10195.7001953,199.8220062,20.2879009,1290,62,-983673.281608000050000,477041.080980000030000
40,Baoying,33.229199999999999,119.309200000000000,21.800000000000001,0.0843538,79.1313019,-21.3118992,62.6982994,10245.7001953,128.2250061,34.2746010,1999,6,-988573.759586000000000,-253595.110187999990000
41,City,31.646100000000001,120.742200000000000,54.399999999999999,1.1666300,89.7042007,15.7840996,71.2149963,10257.7001953,83.9591980,23.4631004,1940,10,-872499.590631000000000,-442119.325482000010000
42,Changzhou,31.773599999999998,119.953999999999990,29.300000000000001,0.4641090,88.7937012,11.7900000,70.1829987,10250.2001953,36.1263008,19.1012001,1558,6,-944751.048059999940000,-420697.053299000020000
43,Dazhong,33.199700000000000,120.457800000000010,25.199999999999999,0.1335760,75.1992035,-2.0594900,69.9296036,10257.7001953,94.0307999,20.9358997,1846,5,-883704.921225999950000,-267886.083679999980000
44,Dongkan,33.999699999999997,119.830800000000000,24.300000000000001,0.1606340,72.4068985,-29.9717007,62.0223007,10242.4003906,125.1510010,29.9410000,2147,5,-932488.776039000020000,-173598.682414999990000
45,Dongtai,32.852300000000000,120.309500000000000,24.399999999999999,0.1145080,75.0006027,1.9931300,71.3431015,10260.0000000,90.0018997,20.0006008,2065,7,-900852.514004000000000,-304929.854866000010000
46,Fengxian,34.703899999999997,116.587200000000000,15.699999999999999,0.0001000,91.9820023,-41.9981995,53.5791016,10227.7001953,146.7700043,16.9673004,2390,38,-1214888.887470000000000,-60132.761206800002000
47,Gaogou,34.017499999999998,119.188599999999990,22.500000000000000,0.0001000,77.6440964,-30.0484009,60.5423012,10244.0000000,133.8029938,36.2057991,2953,6,-990489.728597000010000,-165297.027111000000000
48,Gaoyou,32.789299999999997,119.441800000000000,18.100000000000001,0.0734030,79.6517029,-8.1379004,66.5903015,10250.9003906,97.5842972,23.6602993,1918,5,-981334.757631000010000,-303511.969546000010000
49,Guiren,33.669699999999999,118.188900000000000,26.100000000000001,0.0372580,80.2485962,-29.3155994,60.0420990,10241.0000000,135.8600006,32.2112999,3641,22,-1085240.969070000100000,-193051.539277000000000
50,Haizhou,34.581699999999998,119.128900000000000,20.399999999999999,0.0001000,72.2794037,-22.7245007,64.2451019,10247.2998047,109.8190002,29.4845009,1658,10,-989226.309308000030000,-102356.431718000010000
51,Hede,33.772199999999998,120.261799999999990,26.300000000000001,0.2000000,72.3319016,-21.4197998,64.6306000,10244.5996094,119.8949966,26.5170002,1910,2,-895742.599091000040000,-202794.145450999990000
52,Huai'an,33.588600000000000,119.019200000000000,26.899999999999999,0.1563570,79.9907990,-28.9517994,60.2169991,10245.0000000,139.9550018,39.9683990,1675,14,-1010874.062350000000000,-210930.864777000010000
53,Huilong,31.811100000000000,121.655000000000000,49.000000000000000,0.3293120,87.5190964,21.8803997,73.9975967,10262.0000000,71.8760986,28.4724998,2101,7,-785715.497665000030000,-431654.741331000000000
54,Hutang,31.534300000000002,119.489999999999990,34.399999999999999,0.2991480,88.0705032,21.1513996,73.5632019,10250.0000000,0.5973380,13.2734003,5067,8,-990454.257109000000000,-442490.639929000000000
55,Jiangyan,32.506100000000004,120.142799999999990,23.899999999999999,0.0001000,76.2263031,1.2514300,70.6996994,10258.2998047,90.2263031,20.4743996,1897,9,-919755.568349999960000,-341624.896619000010000
56,Jiangyin,31.911000000000001,120.263000000000010,47.700000000000003,0.1059450,87.0503998,9.3699799,69.9390030,10252.0996094,71.2894974,21.9717999,1848,10,-914613.536207000030000,-408477.307786000020000
57,Jinsha,32.089799999999997,121.073500000000000,37.799999999999997,0.0001000,86.7042007,17.3845997,72.7276993,10259.9003906,77.3896027,28.0414009,2129,7,-837492.445526000000000,-396011.138564999970000
58,Juegang,32.317399999999999,121.185500000000000,34.399999999999999,0.0004535,85.9437027,16.5063000,72.6788025,10259.5996094,77.8862000,28.5876007,2313,8,-825001.420362000000000,-371809.867952000000000
59,Kunshan,31.377600000000001,120.954300000000000,63.100000000000001,0.5145920,90.9251022,18.7562008,71.8149033,10262.0996094,80.6111984,21.6786003,1977,15,-855131.909891000020000,-473644.952591000010000
60,Licheng,31.428100000000001,119.483500000000010,35.500000000000000,0.4536890,88.0001984,21.9953003,73.8767014,10250.0000000,0.0016958,13.6208000,1949,10,-992185.425903000050000,-454135.302704999980000
61,Mudu,31.256000000000000,120.518600000000010,56.100000000000001,0.7068640,95.1262970,18.3742008,70.3440018,10253.7998047,97.5028000,20.8677998,1996,9,-897110.388310999960000,-483150.540847000030000
62,Nanjing,32.061700000000002,118.777800000000000,18.500000000000000,0.7195540,94.1921997,-15.0200996,60.3566017,10250.5000000,25.8171997,10.7881002,1240,23,-1050725.230460000000000,-376875.616416000000000
63,Nantong,32.030299999999997,120.874700000000000,28.899999999999999,0.1855560,86.5089035,14.1231003,71.6896973,10257.9003906,82.5326004,26.2112999,1968,6,-856544.748798000040000,-400858.268166000020000
64,Pizhou,34.311399999999999,117.950300000000000,22.899999999999999,0.0973003,81.8712997,-37.9911995,57.1733017,10233.9003906,134.6109924,19.2416000,1564,27,-1098516.240560000100000,-119579.262072000000000
65,Qinnan,33.253100000000003,119.913300000000010,25.300000000000001,0.0400273,75.8539963,-7.9673500,67.8018036,10254.4003906,101.0070038,23.1686001,3168,2,-933053.626501000020000,-256909.325114000010000
66,Songling,31.193300000000001,120.717600000000000,56.600000000000001,0.6186120,94.9552994,19.4699001,70.7593002,10256.5996094,100.8860016,21.3384991,3142,5,-879031.180062000060000,-491882.505087000030000
67,Suicheng,33.896299999999997,117.933100000000000,26.500000000000000,0.0001000,81.9385986,-33.4459000,58.4169998,10235.5000000,136.1880035,22.6397991,1774,22,-1105471.079250000000000,-165178.560494000000000
68,Suzhou,31.304099999999998,120.595400000000000,55.600000000000001,0.5802570,93.9606018,18.0678997,70.6127014,10255.0996094,94.9792023,21.4890003,2034,9,-889455.618804999980000,-478546.377723000010000
69,Taixing,32.166699999999999,120.013600000000000,27.899999999999999,0.6267210,83.5581970,3.9593599,69.2675018,10252.5996094,74.3699036,20.8036995,1312,6,-935189.888976000020000,-377878.674659000010000
70,Taizhou,32.490699999999997,119.908100000000000,21.000000000000000,0.0001000,77.7435989,0.0620663,69.8220978,10256.5000000,88.7514038,20.7080994,1541,6,-941591.898074000030000,-341085.023818999990000
71,Tongshan,34.180500000000002,117.157100000000000,19.600000000000001,0.1976930,85.0204010,-39.9303017,55.8415985,10229.0000000,140.0110016,10.0487003,2127,37,-1171472.464830000000000,-124778.204092000000000
72,Wuxi,31.568899999999999,120.288600000000000,40.200000000000003,0.2000000,90.4903030,14.1968002,70.4378967,10251.5996094,64.8879013,21.2926998,1355,12,-915607.446173000030000,-446481.413044999990000
73,Xiannu,32.428100000000001,119.560500000000000,15.500000000000000,0.0639714,83.0762024,-2.6743901,67.2816010,10251.5000000,77.1987000,20.1641998,2326,11,-974346.872458999980000,-344580.971773999980000
74,Xiaolingwei,32.032400000000003,118.854000000000000,20.399999999999999,0.7073570,94.3634033,-15.7714005,60.0952988,10250.5996094,23.9694004,10.5578003,2549,15,-1044015.396800000000000,-380925.170921000010000
75,Xinghua,32.939200000000000,119.834200000000000,21.300000000000001,0.0009740,75.8234024,-2.3183300,69.6465988,10257.5000000,93.4209976,21.0872993,2011,7,-943657.734935999960000,-290830.892102000010000
76,Xinpu,34.599699999999999,119.159400000000010,20.399999999999999,0.0001000,72.2326965,-22.7681999,64.2453003,10247.2998047,109.7249985,29.4759007,1356,6,-986270.479433999980000,-100676.638277000010000
77,Yancheng,33.357500000000002,120.157300000000010,25.699999999999999,0.1286570,75.2680969,-7.6972699,68.0693970,10254.5000000,100.4749985,22.5993996,2363,3,-909618.465486999950000,-247676.734147999990000
78,Yangzhou,32.397199999999998,119.435800000000000,14.300000000000001,0.5664510,85.2828979,-3.7850900,66.2651978,10250.2998047,69.8158035,19.1396999,1778,15,-986191.701424999980000,-346737.831629999970000
79,Yicheng,31.360600000000002,119.820200000000000,43.200000000000003,0.4650230,88.8386002,18.9974995,72.5754013,10250.0000000,10.3260002,17.0592003,1171,6,-961450.839246000050000,-464953.056701000020000
80,Zhangjiagang,31.864999999999998,120.538900000000000,44.700000000000003,0.6203140,87.4356995,11.6403999,70.5649033,10254.4003906,82.5074997,23.6210003,1914,11,-889381.361042000000000,-416109.643221999980000
81,Zhenzhou,32.280299999999997,119.170000000000000,16.600000000000001,0.0450489,90.1728973,-6.8737602,63.8792000,10249.4003906,47.4723015,14.9151001,2180,10,-1012018.637060000000000,-356913.988107000010000
82,Zhongxing,33.703899999999997,118.679199999999990,24.699999999999999,0.0257475,79.9077988,-28.9274998,60.2467003,10244.7998047,139.5480042,39.5750008,1721,17,-1040377.387380000000000,-194622.960055000000000
83,Baishan,41.938499999999998,126.419700000000010,9.000000000000000,0.7213390,-29.9487991,-73.4658966,81.0046997,10193.9003906,164.4640045,20.0564003,1045,472,-295932.798491999970000,664553.523502000030000
84,Erdaojiang,41.776400000000002,126.031899999999990,12.800000000000001,1.1525600,-23.1039009,-63.5401993,82.2908020,10189.0000000,148.3190002,20.4986992,1469,408,-328770.264269999990000,647881.764989000050000
85,Hepingjie,42.059699999999999,126.915800000000000,10.300000000000001,0.5630790,-32.6437988,-78.4757996,80.0668030,10194.7998047,198.6450043,19.9643002,2149,729,-254484.873866999990000,676546.317679999980000
86,Linjiang,41.806899999999999,126.907799999999990,10.600000000000000,1.2834800,-36.6514015,-85.9962997,78.6600037,10194.5000000,294.9649963,20.0000000,905,339,-256157.598520000000000,648625.214274000030000
87,Sanchazi,42.081699999999998,126.600300000000000,9.800000000000001,0.3658670,-30.9946995,-75.4177017,80.6369019,10194.2998047,176.4149933,20.0021992,1802,557,-280391.213267999990000,679842.834743999990000
88,Anshan,41.123600000000003,122.989999999999990,23.500000000000000,0.9754180,-3.4760900,-64.5590973,74.5987015,10192.5996094,144.3580017,22.8248997,1286,49,-585681.196650999950000,590017.027501999980000
89,Beipiao,41.791899999999998,120.779200000000000,9.400000000000000,0.0001000,23.9792995,-92.8450012,57.0822983,10192.0996094,236.3930054,40.2907982,1942,275,-761104.832023000000000,678977.937646999960000
90,Benxi,41.288600000000002,123.765000000000000,45.899999999999999,1.0958900,-28.2173996,-77.2964020,78.8424988,10189.2998047,56.6824989,21.6315994,1566,199,-519889.600918999990000,603845.338653999960000
91,Chaoyang,41.570300000000003,120.458600000000000,12.400000000000000,0.0001000,26.8600998,-93.5960007,56.1130981,10192.9003906,242.8209991,41.6213989,694,163,-790042.911953000000000,657139.001026000010000
92,Dalianwan,39.028599999999997,121.694999999999990,23.100000000000001,0.0001000,19.0321007,-84.0476990,61.0056000,10214.9003906,180.2519989,10.1049004,1598,22,-714839.199274000010000,367096.904574999990000
93,Dandong,40.129199999999997,124.394700000000000,27.600000000000001,0.5128910,17.8467999,-54.2705002,70.9479980,10203.9003906,57.1333008,10.2468996,832,10,-475773.038566000000000,472416.429696000010000
94,Dashiqiao,40.637300000000003,122.502500000000000,15.500000000000000,0.5535300,25.2619991,-30.0086002,77.0330963,10200.5996094,246.9369965,20.2945004,1212,17,-630804.024713000050000,539350.024162000050000
95,Dongling,41.814399999999999,123.575800000000000,25.699999999999999,0.2365050,-44.8685989,-102.6200027,75.3703003,10189.0000000,0.4931950,22.7306995,1595,52,-531261.530525999960000,662915.547192999980000
96,Fengcheng,40.453600000000002,124.071700000000010,29.000000000000000,0.2868960,10.0496998,-49.4830017,75.3114014,10197.9003906,165.1219940,15.7208996,1276,65,-500684.632076999990000,509933.576848000000000
97,Fushun,41.855800000000002,123.923300000000000,26.100000000000001,1.2243600,-40.3834000,-94.4496994,76.8086014,10188.7001953,17.3024006,22.6116009,2037,87,-502310.259828999990000,665641.909191000040000
98,Gongchangling,41.116700000000002,123.450000000000000,34.200000000000003,1.1512700,-16.1865005,-68.8046036,77.6057968,10190.4003906,97.8835983,21.8230991,3935,207,-547479.525231000040000,586581.222026000030000
99,Haicheng,40.851599999999998,122.747500000000000,17.899999999999999,0.4920090,19.0953999,-43.9320984,74.1502991,10198.2001953,223.7559967,21.3957996,931,33,-608339.637039999940000,561463.426371000010000
100,Heishan,41.689200000000000,122.112799999999990,9.699999999999999,0.0537628,5.3745298,-90.6774979,62.9463997,10188.7001953,182.6199951,28.0046005,902,26,-652825.486437999990000,657992.945625000050000
101,Huanren,41.264699999999998,125.366699999999990,22.500000000000000,0.7039340,-8.8166504,-46.6120987,83.4654999,10184.0996094,114.8809967,21.0384007,2444,260,-386819.334180000010000,593753.923620000020000
102,Hushitai,41.932200000000002,123.511399999999990,20.800000000000001,0.1901200,-43.9001999,-101.4319992,75.4630966,10188.9003906,4.2244802,22.5816002,2003,62,-535576.553793000060000,676264.726298999970000
103,Jinzhou,41.107799999999997,121.141700000000000,9.699999999999999,0.0001000,31.9960995,-114.8929977,49.2831993,10195.0000000,249.9909973,49.9926987,855,25,-739180.768047000050000,600835.298283000010000
104,Jiupu,41.066699999999997,122.950000000000000,22.899999999999999,1.1018800,2.3667500,-60.1458015,74.1467972,10193.7001953,164.5209961,22.5955009,1141,30,-589516.744739999990000,583974.845113000020000
105,Kuandian,40.728600000000000,124.784700000000000,28.399999999999999,1.2634600,-13.6190996,-31.3369999,91.8975983,10190.2001953,42.1898994,18.1233997,1216,281,-438836.392662999980000,536921.396000999960000
106,Langtou,40.026100000000000,124.328599999999990,26.800000000000001,0.0001000,12.1669998,-60.6246986,70.6456985,10200.0996094,331.7669983,19.7176991,1641,13,-482094.692038999990000,461327.573110000000000
107,Lianshan,40.764299999999999,120.853300000000000,9.900000000000000,0.0062913,30.3999004,-97.8110962,54.0574989,10195.0996094,245.0169983,45.9418983,1218,17,-767022.832233999970000,565192.731040999990000
108,Liaoyang,41.271900000000002,123.173100000000010,27.399999999999999,0.6289870,-22.5051003,-77.5344009,76.6311035,10190.0996094,78.5355988,22.9778004,942,30,-569165.709691000050000,605307.515121000000000
109,Liaozhong,41.506100000000004,122.724200000000000,16.199999999999999,0.0706963,-13.8851995,-82.7970963,71.6743011,10189.5996094,112.1650009,24.4340000,1044,16,-604215.357652000040000,633858.327441000030000
110,Linghai,41.165300000000002,121.366699999999990,7.700000000000000,0.0001000,31.5972996,-110.2949982,50.5217018,10195.0000000,249.1020050,49.2565994,1202,26,-719918.474969999980000,605490.308276999970000
111,Lingyuan,41.240000000000002,119.401100000000000,7.900000000000000,0.4058720,31.8754997,-91.8050995,55.3083000,10187.2001953,243.9669952,25.1445007,1055,396,-881122.825333000040000,629861.042738000050000
112,Lushun,38.799999999999997,121.266700000000000,12.800000000000001,0.2190520,19.3271008,-82.0220032,61.5317993,10214.5996094,181.5290070,10.6650000,328,6,-753849.825236000000000,345041.974325000020000
113,Nanpiao,41.098199999999999,120.747900000000000,10.100000000000000,0.0001000,31.4831009,-108.9179993,50.8969994,10194.9003906,248.6060028,48.9499016,1932,94,-771874.271515000030000,602829.524160000030000
114,Nantai,40.924100000000003,122.804400000000000,19.500000000000000,0.6833460,15.2530003,-48.8395004,73.7266006,10196.9003906,209.8950043,21.8176003,1572,34,-602931.136886000050000,569117.201450999940000
115,Panshan,41.188099999999999,122.049400000000010,6.800000000000000,0.0054417,21.7966995,-60.3958015,67.6113968,10197.0000000,230.3150024,27.6902008,955,11,-663139.970456999960000,603161.545968999970000
116,Pulandian,39.395299999999999,121.966900000000000,12.300000000000001,0.0001000,19.7490997,-66.7537003,66.1789017,10209.5000000,191.6150055,14.7831001,1201,16,-687989.901791000040000,405695.761698000020000
117,Shenyang,41.792200000000001,123.432800000000000,21.199999999999999,0.0932762,-44.9124985,-102.7679977,75.3308029,10189.0000000,0.3291860,22.7616005,1037,52,-543224.104465999990000,661254.139183999970000
118,Sujiatun,41.659199999999998,123.339200000000010,22.000000000000000,0.0693303,-44.3209991,-101.5319977,75.5786972,10189.0000000,2.4928100,22.9881001,1029,41,-552073.468241999970000,647104.089980000050000
119,Wafangdian,39.618299999999998,122.008100000000000,11.900000000000000,0.1544930,20.1441002,-58.8714981,68.6409988,10204.4003906,202.3730011,18.6861000,1584,100,-682291.221175999960000,430064.471624000000000
120,Xiaoshi,41.297100000000000,124.120900000000010,40.299999999999997,0.4832120,-18.9979992,-65.8722992,79.7843018,10189.0000000,84.9889984,21.0170002,1267,207,-490257.295525999970000,602940.293566999960000
121,Xingcheng,40.616700000000002,120.716700000000000,10.100000000000000,0.0170026,29.0168991,-86.6417999,57.4939003,10195.2998047,238.2779999,40.9379997,1460,10,-780104.216923999950000,550001.330702999960000
122,Xiuyan,40.292800000000000,123.274400000000000,21.699999999999999,0.1378130,12.0319996,-47.3213997,75.3981018,10195.5000000,194.3529968,19.8574009,1281,81,-569087.210515000040000,496522.751539000020000
123,Yebaishou,41.397500000000001,119.640800000000000,8.199999999999999,0.0001000,26.4449997,-87.7770996,57.8606987,10188.7001953,254.7570038,28.3398991,1372,414,-859336.761508999970000,645044.713723000020000
124,Yingkou,40.664800000000000,122.228300000000000,12.699999999999999,0.0053177,25.9986000,-25.0447006,78.6134033,10201.0000000,249.9929962,20.0013008,971,3,-653465.407145999950000,544193.592210000030000
125,Zhuanghe,39.700800000000001,122.991100000000000,17.300000000000001,0.0192644,15.2284002,-45.0965004,75.0800018,10195.7001953,206.5220032,22.0550003,1773,5,-598103.973010999970000,432733.419281999990000
126,Anqiu,36.434199999999997,119.192500000000000,14.800000000000001,0.0001000,39.6208000,-139.6929932,41.9905014,10232.9003906,168.2429962,20.1135006,1372,59,-961076.095777999960000,101714.677030000010000
127,Bianzhuang,34.848599999999998,118.044700000000010,16.500000000000000,0.1758310,85.6277008,-41.6386986,55.2324982,10236.0000000,134.2239990,20.6840000,2587,46,-1083013.536480000000000,-61358.786943100000000
128,Binzhou,37.366700000000002,118.016700000000000,4.800000000000000,0.0659511,70.4736023,-91.0250015,46.4972000,10217.2001953,148.6549988,29.9043007,1499,14,-1051257.954029999900000,216802.547752000010000
129,Boshan,36.483300000000000,117.833299999999990,21.699999999999999,0.0001000,69.3115997,-82.0117035,48.8670998,10229.2001953,41.0704002,36.0870018,2977,386,-1079543.090469999900000,121363.443248000000000
130,Changqing,36.557499999999997,116.727200000000000,12.500000000000000,0.0001000,143.0319977,-93.8015976,33.1567993,10201.5000000,178.4149933,49.5382996,1667,39,-1174872.585490000000000,142333.768545000000000
131,Chengtangcun,35.083599999999997,117.190700000000010,13.100000000000000,0.1590280,86.8310013,-45.6212997,53.8885002,10231.7998047,136.5590057,19.8257999,1870,73,-1155807.052760000100000,-25630.700765000001000
132,Chengyang,35.579400000000000,118.832800000000010,18.399999999999999,0.0001000,56.0270996,-74.0560989,53.9921989,10240.2998047,76.0595016,18.2647991,1446,112,-1003485.011510000000000,10897.383983000000000
133,Dengzhou,37.808199999999999,120.759100000000000,10.600000000000000,0.0947084,23.3341007,-124.4749985,48.9023018,10223.7998047,189.7680054,20.3045998,1118,23,-808271.895004000050000,239414.936382999990000
134,Dezhou,37.451300000000003,116.310500000000000,10.300000000000001,0.0001000,85.8236008,-88.8168030,43.8462982,10199.9003906,151.9609985,33.6833992,1245,24,-1196908.472110000000000,245799.643336000010000
135,Dongcun,36.776699999999998,121.159700000000000,8.800000000000001,0.0001000,15.0005999,-141.9880066,46.5396004,10236.0000000,0.0000000,0.0000000,0,0,-784196.705848000010000,121988.619525000000000
136,Dongdu,35.850000000000001,117.700000000000000,19.800000000000001,0.0001000,71.7390976,-68.4244995,51.6568985,10231.9003906,62.8087006,24.8610992,2085,200,-1100041.933230000100000,52992.721553299998000
137,Feicheng,35.260599999999997,117.967500000000000,16.100000000000001,0.0001000,89.9972000,-39.0177002,54.8414993,10236.0000000,139.9940033,20.0004005,1771,114,-1084419.181799999900000,-15034.394393099999000
138,Gaomi,36.383299999999998,119.752799999999990,11.699999999999999,0.0001000,44.6421013,-132.7189941,42.5009995,10234.9003906,161.2220001,19.7992992,1293,25,-912395.176043999960000,90704.091015300000000
139,Hanting,36.770800000000001,119.210800000000010,12.000000000000000,0.0001000,37.0022011,-160.9170074,38.1458015,10233.0000000,179.9929962,20.0002995,1732,17,-955290.598910999950000,138726.774846999990000
140,Jiaozhou,36.283900000000003,120.003300000000000,9.400000000000000,0.0001000,48.5414009,-150.3470001,38.1748009,10237.2001953,160.7899933,19.8561001,1358,9,-891457.430662999980000,77394.146739300006000
141,Jiehu,35.542800000000000,118.455000000000000,18.399999999999999,0.0001000,73.9840012,-58.9161987,53.5560989,10236.2001953,102.9759979,20.8845005,1776,114,-1037454.769560000000000,10810.317833999999000
142,Jimo,36.389699999999998,120.462200000000000,8.699999999999999,0.0001000,49.5730019,-163.3699951,35.5466995,10237.9003906,161.8589935,19.9311008,1473,26,-849767.889810999970000,84999.775823499993000
143,Jinan,36.668300000000002,116.997200000000010,12.699999999999999,0.0001000,144.9960022,-95.9894028,32.5181007,10201.0000000,179.9960022,49.9991989,1310,33,-1149735.806150000100000,151320.385313000010000
144,Jining,35.405000000000001,116.581400000000000,18.899999999999999,0.2000000,96.0261993,-52.3413010,50.0494995,10223.5996094,149.1510010,26.1051006,1284,43,-1205014.292470000000000,17164.925172600000000
145,Laiwu,36.192799999999998,117.656899999999990,22.800000000000001,0.0001000,69.4241028,-78.3543015,49.7275009,10229.9003906,38.4272995,34.6267014,1919,181,-1099045.218099999900000,91291.086003999997000
146,Laixi,36.859200000000001,120.526900000000000,8.500000000000000,0.0001000,29.2707996,-129.0670013,46.4830017,10232.9003906,256.0249939,16.1702995,1982,54,-838930.641972000010000,136388.218320999990000
147,Laiyang,36.975800000000000,120.713600000000000,8.300000000000001,0.0001000,21.9712009,-127.9449997,48.3622017,10232.9003906,299.1019897,13.9853001,1667,40,-821286.485637999950000,147700.129562999990000
148,Linqu,36.515599999999999,118.539700000000000,15.400000000000000,0.0001000,54.0756989,-100.6100006,47.7925987,10232.0996094,78.6750031,22.0970993,1635,102,-1017304.710850000000000,117330.331278000000000
149,Linyi,35.063099999999999,118.342800000000000,17.199999999999999,0.0630012,83.6605988,-42.8632011,55.3979988,10237.2001953,129.7250061,21.3628006,1625,71,-1053626.547100000100000,-40949.596164800001000
150,Longgang,37.651800000000001,120.330600000000000,7.700000000000000,0.0001000,22.0032005,-147.8869934,43.7120018,10225.0000000,180.0119934,20.0002995,1198,4,-847190.328098000030000,225756.403872000000000
151,Luofeng,37.365000000000002,120.410000000000000,6.800000000000000,0.0001000,22.8514004,-139.1060028,45.5243988,10225.2001953,185.2369995,19.9265995,1745,68,-843533.742516000060000,193350.572340999990000
152,Mengyin,35.706899999999997,117.926400000000000,18.899999999999999,0.0018679,76.5857010,-59.7358017,52.7167015,10234.0000000,90.0441971,21.4571991,2273,183,-1082043.267870000100000,34670.796525999998000
153,Mingshui,36.716700000000003,117.500000000000000,15.000000000000000,0.0001000,123.2890015,-89.0114975,37.0419998,10208.0000000,153.1690063,46.4916992,1709,73,-1105303.324790000000000,150839.047495000010000
154,Mizhou,35.994700000000002,119.397499999999990,18.399999999999999,0.0001000,44.3750992,-104.0910034,49.1165009,10238.5996094,96.1837006,16.7856998,1406,62,-948368.897252999940000,51134.852275500001000
155,Nanding,36.748300000000000,118.055800000000000,15.000000000000000,0.0399616,68.9774017,-89.0402985,47.2761002,10226.7001953,81.5772018,30.8922005,1399,71,-1056453.181260000000000,148161.328237999990000
156,Nanma,36.184800000000003,118.154900000000000,20.300000000000001,0.0178475,59.0005989,-79.9999008,51.7314987,10234.0000000,0.0060843,25.7621994,1434,283,-1055457.610820000100000,84904.845266699995000
157,Ninghai,37.384200000000000,121.608600000000000,10.800000000000001,0.0001000,23.1944008,-82.0422974,60.4257011,10224.0996094,278.1199951,24.7390995,1346,13,-738725.524067000020000,185747.248452000000000
158,Ningyang,35.764200000000002,116.791400000000000,17.199999999999999,0.0015693,97.0234985,-62.8487015,47.3474007,10221.0996094,139.1210022,31.2325001,1582,64,-1181183.469020000000000,54165.597041100002000
159,Pingdu,36.784399999999998,119.946400000000000,9.000000000000000,0.0001000,39.8479996,-130.9739990,43.8361015,10232.2998047,181.9340057,19.8426991,1443,56,-890696.219930000020000,133264.704266999990000
160,Pingyi,35.500599999999999,117.630799999999990,16.600000000000001,0.0001000,86.7890015,-47.1268005,53.5084000,10234.7998047,130.4839935,20.6742992,1797,153,-1110987.916120000000000,15236.026531400001000
161,Pingyin,36.283099999999997,116.445300000000000,15.800000000000001,0.0001000,125.4160004,-80.1708984,38.3268013,10207.2001953,166.1269989,44.0609016,1267,44,-1203608.806889999900000,115553.887673000000000
162,Qingdao,36.066000000000003,120.369400000000000,10.199999999999999,0.0001000,49.5393982,-159.6060028,36.2447014,10237.7998047,160.6560059,19.9358006,1866,42,-861516.820681000010000,49997.176948900000000
163,Qingyang,37.495800000000003,121.258100000000000,11.300000000000001,0.0001000,23.7437992,-98.1276016,55.6697998,10224.5000000,252.0489960,20.7208996,1031,9,-768199.858330999970000,200811.860374999990000
164,Qingzhou,36.696700000000000,118.479699999999990,13.199999999999999,0.1459880,52.2355995,-107.3410034,46.6114998,10230.9003906,109.4229965,22.4689999,1420,98,-1020160.905790000000000,137951.215201999990000
165,Qufu,35.596699999999998,116.991100000000000,17.100000000000001,0.0126985,89.5380020,-57.3274994,50.3019981,10226.5000000,131.1999969,26.2266998,1666,69,-1166080.832400000000000,33303.635509300002000
166,Rizhao,35.427500000000002,119.455299999999990,18.199999999999999,0.0001000,34.0367012,-109.7060013,50.1002007,10247.0000000,20.1224003,10.0179005,1436,19,-949994.136260000060000,-12126.173636300000000
167,Shanting,35.075299999999999,117.457800000000010,11.500000000000000,0.0001000,87.5063019,-43.4846001,54.2809982,10234.4003906,136.5579987,19.9972992,2458,147,-1132211.700140000100000,-29680.588025400000000
168,Shengli,37.462699999999998,118.491699999999990,6.900000000000000,0.0417461,52.2085991,-100.3659973,48.2622986,10222.4003906,160.9190063,24.4680996,1574,8,-1008867.480550000000000,222374.244140000000000
169,Shizilu,35.171100000000003,118.828900000000000,18.500000000000000,0.0001000,67.1600037,-44.7462997,59.1683998,10244.5000000,99.4505997,25.0324993,1471,102,-1008922.982040000000000,-34165.618891200000000
170,Shouguang,36.880000000000003,118.737500000000000,12.500000000000000,0.0257213,40.8284988,-136.7339935,42.3869019,10231.7998047,167.3000031,20.6149998,1469,25,-995246.318223000040000,155523.904157000010000
171,Sishui,35.648899999999998,117.275800000000000,16.899999999999999,0.0001000,85.3254013,-57.8045998,51.1488991,10229.5996094,119.5309982,24.6396008,1323,114,-1140242.277650000100000,35689.693850000003000
172,Suozhen,36.953899999999997,118.104699999999990,10.100000000000000,0.0001000,68.6001968,-93.6874008,46.2823982,10224.0000000,117.4319992,29.4703007,1919,20,-1049364.449150000000000,170317.387057999990000
173,Tai'an,36.185299999999998,117.120000000000000,15.600000000000000,0.0001000,117.5820007,-81.4956970,39.4258995,10211.0996094,146.0319977,43.9155998,1150,140,-1146170.442379999900000,96647.454861699996000
174,Taozhuang,34.850000000000001,117.333299999999990,11.699999999999999,0.1254980,85.9428024,-42.7428017,54.8614006,10231.7001953,137.6950073,17.0657997,4065,52,-1146415.623020000100000,-53068.949453100002000
175,Tianfu,37.197200000000002,122.052300000000000,8.000000000000000,0.0001000,23.6786995,-51.4263000,70.0017014,10222.0996094,282.6239929,38.6548004,1336,41,-701664.728496999950000,161756.973100000000000
176,Weichanglu,37.180700000000002,119.942200000000000,4.400000000000000,0.0001000,29.8344002,-127.4150009,46.7486992,10226.9003906,187.5579987,20.1394997,1569,45,-886435.118966000040000,177121.458772999990000
177,Weifang,36.710000000000001,119.101900000000000,13.000000000000000,0.0033626,37.0424004,-160.1450043,38.2899017,10233.0000000,179.8430023,20.0046997,1050,30,-965581.346428000020000,133082.444408999990000
178,Weihai,37.509099999999997,122.113600000000010,17.800000000000001,0.1778920,23.6294994,-39.1610985,74.2861023,10221.2001953,279.4440002,43.7276001,-1810,12,-693400.142181999980000,195870.717469000000000
179,Wenshang,35.727499999999999,116.496100000000000,17.100000000000001,0.0252867,100.2929993,-59.9942017,47.3101997,10219.5996094,150.0859985,30.8945999,2405,44,-1207662.153329999900000,53741.295204900001000
180,Xiazhen,34.802199999999999,117.111700000000000,13.100000000000000,0.0848590,86.2406006,-42.2860985,54.9082985,10230.0000000,139.6360016,15.0642996,2526,37,-1166812.387069999900000,-55709.124147000002000
181,Xiazhuang,34.916100000000000,118.638900000000010,18.800000000000001,0.0001000,72.8302994,-34.4054985,60.6016006,10244.2001953,111.4179993,26.8563004,1789,61,-1029066.460140000000000,-60344.376414600003000
182,Xindian,36.797499999999999,118.294400000000000,11.100000000000000,0.0001000,58.8885994,-98.7817993,47.1758003,10228.5996094,102.7229996,25.3183994,2886,73,-1034982.316020000000000,151030.849605000000000
183,Xintai,35.900599999999997,117.751900000000010,20.399999999999999,0.2000000,68.4677963,-71.1648026,51.7346001,10232.2001953,47.8625984,25.2010994,1618,198,-1094771.907560000000000,57990.302985000002000
184,Yantai,37.476500000000001,121.440800000000000,11.000000000000000,0.0269764,23.6597004,-88.4692001,58.4163017,10223.7001953,263.9949951,22.7154999,1948,24,-752460.247626999980000,197250.284143000000000
185,Yanzhou,35.552799999999998,116.828599999999990,17.600000000000001,0.1998620,91.8447037,-56.1431007,50.0688019,10225.0996094,137.8609924,26.5519009,1472,54,-1181038.072170000100000,30422.311246300000000
186,Yatou,37.156599999999997,122.437600000000000,9.699999999999999,0.2000000,23.2985992,-26.8938007,78.9080963,10222.9003906,287.0249939,48.1212006,1728,13,-668210.269392000050000,154550.919111000000000
187,Yinzhu,35.878599999999999,119.975300000000000,25.399999999999999,0.0001000,44.8548012,-119.4349976,45.3940010,10239.0000000,119.5210037,17.5035992,1466,8,-898548.767436999940000,32823.788514799999000
188,Yishui,35.784700000000001,118.628100000000000,18.600000000000001,0.1830300,61.4911003,-75.0585022,52.4002991,10235.4003906,67.9046021,20.3318005,1588,152,-1019014.041170000000000,35696.927824799997000
189,Yucheng,34.928899999999999,116.465300000000000,15.600000000000000,0.0001000,97.9122009,-45.0769005,51.4006996,10224.7998047,154.5070038,22.3176003,2348,36,-1222382.119290000100000,-33827.600928699998000
190,Zaozhuang,34.864699999999999,117.554199999999990,11.800000000000001,0.1193730,86.3889999,-42.4329987,54.8326988,10233.7001953,136.6849976,18.8831997,1358,81,-1126539.770270000000000,-54023.371577799997000
191,Zhoucheng,35.912199999999999,116.311700000000000,16.300000000000001,0.1102790,105.9469986,-64.1977005,45.1931992,10216.0000000,156.1719971,34.1987000,3303,42,-1220996.249469999900000,76377.091390799993000
192,Zhoucun,36.816699999999997,117.816700000000000,14.400000000000000,0.0001000,87.7940979,-87.1574020,43.8153000,10219.5000000,110.5780029,37.9352989,2487,48,-1076323.786820000000000,158322.592054999990000
193,Zhuangyuan,37.305500000000002,120.827500000000000,8.500000000000000,0.0001000,23.1611996,-121.6299973,49.6459999,10227.5996094,240.8040009,17.9162006,1489,133,-807771.655543999980000,183231.800424999990000
194,City,35.994999999999997,119.402600000000010,18.600000000000001,0.0001000,44.3414001,-104.2300034,49.0903015,10238.5996094,96.3396988,16.7816010,1520,67,-947914.323987000040000,51118.405880400001000
195,Zibo,36.790599999999998,118.063300000000000,14.199999999999999,0.1211510,69.5108032,-90.1688004,46.8993988,10225.9003906,91.0327988,30.7022991,1456,50,-1055217.132610000000000,152747.175625000000000
196,Zoucheng,35.400599999999997,116.965599999999990,16.699999999999999,0.0516367,88.7042007,-52.1876984,51.7654991,10228.2998047,135.4859924,23.6165009,1479,77,-1171182.646220000000000,11997.316239800000000
197,Songjiang,31.035900000000002,121.214600000000000,50.600000000000001,1.0281100,92.6529999,21.2502995,72.0926971,10261.9003906,86.7368011,21.9806004,2733,1,-833727.227357000000000,-513620.626549999990000
198,Zhujiajiao,31.107600000000001,121.057000000000000,55.399999999999999,0.9770110,92.7500000,20.5382996,71.8221970,10261.4003906,88.1687012,21.5820007,2760,9,-847923.148454000010000,-504347.264940000020000
199,Hangu,39.248899999999999,117.789199999999990,8.300000000000001,0.0080776,51.0060997,-80.4677963,53.5405998,10195.0000000,193.4530029,22.2241001,1126,2,-1043477.754590000000000,426655.569089000000000
200,Tanggu,39.021099999999997,117.646900000000000,7.800000000000000,0.0087506,54.5783997,-81.9224014,52.2943001,10196.2001953,186.8760071,23.7724991,1446,16,-1058870.203950000000000,403114.119592999980000
201,Xianshuigu,38.984999999999999,117.382800000000000,8.600000000000000,0.0001000,59.2214012,-85.0328979,50.4157982,10195.2998047,180.7160034,24.9048996,1128,5,-1081696.683530000000000,402040.575913999990000
202,Yangcun,39.363900000000001,117.060300000000000,11.199999999999999,0.1057400,63.4100990,-92.6111984,47.6441994,10187.7998047,186.6210022,22.5247993,1742,5,-1102920.337110000000000,447332.044037999990000
203,Yangliuqing,39.137500000000003,116.999700000000000,13.800000000000001,0.0001000,63.1004982,-89.5873032,48.4295998,10191.5996094,181.1909943,24.4372997,1713,7,-1111579.857730000000000,423126.473011000020000
204,Deqing,30.544899999999998,119.959900000000000,27.699999999999999,0.5087270,114.4039993,26.7894001,67.1116028,10250.5000000,183.5030060,12.5791998,2091,11,-956525.377569000000000,-556246.509290999970000
205,Fuyang,30.053300000000000,119.951899999999990,15.900000000000000,0.2132210,118.8059998,33.1025009,67.7684021,10250.9003906,207.5000000,11.9456997,2539,22,-962091.213066000030000,-610309.570167000060000
206,Hangzhou,30.293600000000001,120.161400000000000,19.399999999999999,0.4807610,121.2310028,25.8258991,64.8135986,10251.0000000,216.7749939,10.4434004,1993,14,-939936.843270999960000,-585891.292210999990000
207,Huzhou,30.870300000000000,120.093300000000000,42.100000000000001,0.2356570,103.8820038,22.3020992,68.8855972,10250.2998047,125.7969971,15.4299002,2007,11,-940765.358088999990000,-521682.098470000030000
208,Jiaxing,30.752199999999998,120.750000000000000,45.600000000000001,0.9707620,109.3399963,25.1595001,68.1257019,10252.4003906,166.3000031,16.6660995,2544,8,-880046.887801000030000,-540838.133034999950000
209,Lianghu,29.991499999999998,120.898400000000000,27.000000000000000,0.1348130,119.2699966,44.6651001,71.3427963,10252.7001953,213.2850037,16.7017002,5087,19,-872812.846380000000000,-626024.240901999990000
210,Linping,30.422499999999999,120.297200000000000,25.100000000000001,0.8692680,121.1429977,25.2754002,64.6732025,10251.0000000,216.3500061,10.4617004,2255,18,-925867.428333000050000,-572989.826724000040000
211,Shangyu,30.015599999999999,120.871100000000000,27.399999999999999,0.8085100,119.3899994,42.1450005,70.4805984,10252.4003906,213.1210022,15.8778000,2819,13,-875196.071925999950000,-623124.405406999980000
212,Shaoxing,30.002400000000002,120.578599999999990,25.300000000000001,0.0050967,121.1179962,31.6508999,66.6259995,10251.4003906,217.4369965,11.7482004,1817,20,-903109.256917000050000,-621910.368252999960000
213,Xiaoshan,30.167500000000000,120.258799999999990,19.000000000000000,0.4229800,121.8130035,24.9393997,64.3802032,10251.0000000,219.2630005,10.1500998,1805,13,-931916.377977999970000,-600716.017918000000000
214,Xiashi,30.536300000000001,120.686400000000010,35.799999999999997,0.1069640,118.2450027,26.7499008,65.9621964,10251.0996094,204.6849976,12.3771000,2667,8,-888024.833409999960000,-564068.160079000050000
215,Yuyao,30.050000000000001,121.149400000000000,27.800000000000001,0.1591450,117.3069992,41.7006989,70.9904022,10251.9003906,205.2180023,17.9034996,1955,41,-848436.589278999950000,-621794.540111999960000
216,Zhicheng,31.005400000000002,119.904900000000000,42.299999999999997,0.3267740,95.3697968,19.8617001,70.7568970,10249.9003906,65.3226013,16.3778992,1739,13,-957118.869679000000000,-504953.891230000010000
217,Zhoushan,29.988700000000001,122.204899999999990,18.600000000000001,0.0001000,117.9499969,40.8801003,70.5199966,10250.0000000,219.6100006,10.1463003,2712,2,-748384.488952000040000,-637197.884589000020000
218,Busan,35.102800000000002,129.040300000000000,11.500000000000000,0.8497430,35.9998016,-50.9866982,66.2481995,10153.0000000,284.0000000,64.9970016,-565,0,-87296.467489000002000,-99325.362726599997000
219,Asan,36.783600000000000,127.004200000000000,11.000000000000000,1.3396200,24.3516006,12.2536001,94.5050964,10181.7998047,274.0729980,22.9640999,2159,25,-266660.285608000010000,91223.949603800007000
220,Cheonan,36.806500000000000,127.152199999999990,14.000000000000000,1.2014700,22.1418991,5.6143999,92.5537033,10180.0000000,270.0180054,24.1599007,2291,45,-253421.963381999990000,93373.957664999994000
221,Gongju,36.455599999999997,127.124700000000000,12.400000000000000,1.1934201,25.9442005,7.4693198,91.7244034,10180.2001953,265.4899902,22.2035999,2802,23,-257034.861233000000000,54449.069834599999000
222,Hongsung,36.600900000000003,126.665000000000010,15.900000000000000,0.1120970,37.9840012,14.2868004,89.5587006,10185.4003906,319.3500061,35.7005005,2216,32,-297526.698693000010000,71903.607357000001000
223,Seosan,36.781700000000001,126.452200000000000,14.100000000000000,1.1447400,39.9654999,16.8938007,89.8309021,10190.0000000,338.8020020,46.9250984,2076,35,-315744.475276999990000,92661.878106400007000
224,Taisen-ri,36.349299999999999,126.597700000000000,16.300000000000001,0.2020640,47.9109001,20.8199005,88.2012024,10179.0000000,339.6390076,15.2911997,2102,10,-304510.735275999990000,44154.040698999997000
225,Daegu,35.870300000000000,128.591100000000010,10.900000000000000,0.3403860,40.9850998,-35.8545990,69.6369019,10157.0000000,289.9830017,40.9846001,1833,45,-126931.739931000000000,-13503.903529200001000
226,Hwawon,35.801699999999997,128.500800000000000,11.100000000000000,0.1641750,39.3625984,-30.3490009,72.0384979,10157.9003906,287.8729858,39.5302010,2420,36,-135182.154841000010000,-21009.217218700000000
227,Daejeon,36.321399999999997,127.419700000000010,9.600000000000000,1.1162400,21.0132008,9.9034405,94.9350967,10181.0000000,237.0970001,11.0490999,2325,71,-231080.980978000010000,38795.065071199999000
228,Chuncheon,37.874699999999997,127.734200000000000,13.100000000000000,0.1089780,18.7099991,8.2444096,95.2174988,10169.2998047,207.0290070,17.6609993,1672,96,-198812.868504000010000,210720.627077999990000
229,Hongch'on,37.691800000000001,127.885700000000000,10.400000000000000,1.0492300,16.7982006,4.6313400,94.4537964,10173.7001953,217.2920074,11.9925003,2886,137,-185985.413009000010000,190100.247605999990000
230,Kang-neung,37.755600000000001,128.896099999999990,11.800000000000001,1.1918900,16.7222996,5.4318700,94.8438034,10170.0996094,198.5209961,14.9288998,2078,15,-97037.505140800000000,195723.145717000010000
231,Kosong,38.378799999999998,128.467600000000000,18.000000000000000,1.1916699,25.2322998,2.2229800,89.7856979,10166.7001953,273.9599915,10.3218002,2706,21,-133554.189936000010000,265471.339570000010000
232,Sokcho,38.207000000000001,128.591800000000010,16.699999999999999,1.1538500,25.9151001,3.8028100,90.1688995,10166.0000000,289.2030029,10.0223999,1896,21,-123022.893968000000000,246223.120739000010000
233,Tonghae,37.543900000000001,129.106900000000000,10.900000000000000,1.1918900,30.7248993,13.3815002,92.2310028,10167.0000000,58.0605011,49.6161003,2980,20,-78733.079214800004000,172005.319962999990000
234,Wonju,37.351399999999998,127.945300000000000,12.400000000000000,0.3878150,19.6923008,5.4607100,93.5494003,10173.2001953,331.5599976,5.2943101,2063,135,-181571.455992000000000,152161.355573999990000
235,Gwangju,35.154699999999998,126.915600000000000,12.600000000000000,0.7997460,39.9934006,-1.0185699,82.5726013,10192.0000000,267.0469971,25.0244007,1824,49,-280262.903066000030000,-89549.900435100004000
236,Ansan-si,37.323599999999999,126.821900000000000,13.000000000000000,1.3161000,26.9057999,15.1518002,94.6638031,10182.4003906,285.7309875,15.5060997,2043,15,-280865.129556000000000,151737.038673000000000
237,Anseong,37.010800000000003,127.270300000000010,15.800000000000001,1.3355200,23.1924000,12.0438004,94.9232025,10182.0000000,249.2590027,19.4349995,2205,36,-242270.840883000000000,115777.321888000010000
238,Anyang-si,37.392499999999998,126.926900000000000,15.600000000000000,1.3459800,25.7000008,14.1371002,94.7453995,10182.2998047,278.6789856,13.5644999,1881,53,-271345.576339000020000,159094.363241999990000
239,Bucheon-si,37.498899999999999,126.783100000000000,17.199999999999999,1.3509901,22.3910999,10.1522999,94.4371033,10181.0996094,312.5209961,25.4095993,2141,16,-283625.994746999990000,171324.140626999990000
240,Gapyeong,37.831000000000003,127.510600000000000,11.600000000000000,0.4741800,15.0979004,4.8447399,95.3035965,10174.0996094,190.4060059,14.1232996,3625,69,-218550.388928000000000,206344.381813000010000
241,Goyang-si,37.656399999999998,126.834999999999990,17.100000000000001,1.3228900,13.2947998,2.4698999,95.0432968,10181.5996094,275.6229858,17.0995007,1887,18,-278465.155044000010000,188670.467085000010000
242,Guri-si,37.598599999999998,127.139399999999990,13.500000000000000,1.2926600,14.5922003,3.5778201,94.9617004,10181.2001953,257.8710022,16.5855007,2021,33,-251902.488790000000000,181421.377431000000000
243,Gwangju,37.409999999999997,127.257200000000000,12.199999999999999,1.2553500,15.7195997,6.7119098,95.8647003,10182.5996094,180.9440002,10.5621004,1748,48,-242148.139018999990000,160168.721825999990000
244,Hanam,37.539999999999999,127.205600000000000,12.800000000000001,1.2262501,15.2062998,4.5056500,95.1035004,10181.4003906,240.6889954,15.0639000,1966,33,-246271.320012999990000,174741.798879000010000
245,Hwado,37.652500000000003,127.307500000000000,14.300000000000001,1.5180300,11.5460997,2.3413601,95.7671967,10181.5000000,210.6829987,12.3233004,1937,84,-236939.081940000000000,186988.050317999990000
246,Hwaseong-si,37.206800000000001,126.816900000000000,13.000000000000000,1.3349000,28.0463009,16.7294998,94.8606033,10182.7998047,276.0260010,14.9414997,2338,22,-281743.196016000000000,138774.827418000000000
247,Icheon-si,37.279200000000003,127.442500000000000,12.900000000000000,1.4196399,3.0847600,0.1364090,98.6204987,10185.0000000,1.1758400,0.0729245,2159,70,-226193.852049999990000,145189.539202000010000
248,Kwangmyong,37.477200000000003,126.866400000000000,18.500000000000000,1.3634900,18.7740993,7.4313798,94.8256989,10180.7998047,284.8599854,19.7448997,1928,27,-276369.335280000000000,168674.193911000010000
249,Namyangju,37.636699999999998,127.214200000000010,13.300000000000001,1.1521500,12.4309998,2.6849101,95.5252991,10182.0000000,231.4900055,13.9610004,3073,61,-245195.237029000010000,185463.437173999990000
250,Osan,37.152200000000001,127.070600000000000,11.400000000000000,1.3222500,29.4402008,19.2273006,95.3544998,10183.0000000,261.3039856,19.9552994,1840,22,-259495.561735000000000,132003.901561000010000
251,Pubal,37.291699999999999,127.507800000000000,13.199999999999999,0.0001000,3.0798299,0.1133420,98.6120987,10185.0000000,1.1897100,0.0694139,1910,58,-220385.580827000000000,146428.995755999990000
252,Seongnam-si,37.438600000000001,127.137800000000000,13.100000000000000,1.3845600,19.7005005,8.5138302,94.8974991,10181.7998047,251.1049957,14.5455999,1906,77,-252584.283574000000000,163649.398670000000000
253,Suwon-si,37.291100000000000,127.008900000000000,11.100000000000000,1.3193901,29.9036999,20.6096001,95.7652969,10183.0000000,280.6310120,9.1407900,2011,58,-264468.745027000030000,147603.102553000000000
254,Uijeongbu-si,37.741500000000002,127.047400000000000,17.899999999999999,1.3607500,4.8391399,-0.6148220,97.4643021,10185.5000000,195.7920074,9.2278605,2095,49,-259496.727301000010000,197537.588737999990000
255,Wabu,37.589700000000001,127.220299999999990,13.100000000000000,1.1745800,13.6176996,3.3709199,95.3031006,10181.7001953,235.2189941,14.4771004,2055,34,-244813.438930000000000,180226.482698999990000
256,Yangju,37.833100000000002,127.061700000000000,19.000000000000000,1.1545500,-1.5624501,-2.1968000,99.7009964,10189.5000000,113.1279984,3.4855101,2121,75,-257921.141402000010000,207674.788342999990000
257,Yangp'yong,37.489699999999999,127.490600000000000,10.800000000000001,0.2900620,10.9509001,3.0203199,96.3423996,10181.2998047,137.1979980,7.6481600,1878,39,-221320.277787000000000,168469.498725999990000
258,Andong,36.566400000000002,128.722700000000000,8.500000000000000,0.4260370,6.0081601,-9.9950399,92.7248001,10162.0000000,316.9779968,14.0072002,1806,97,-114058.170284000010000,63723.997986499999000
259,Eisen,35.967500000000001,128.930800000000000,11.199999999999999,0.7096890,36.7051010,-22.9304008,75.5610962,10156.0000000,282.0729980,35.7826004,2195,84,-96213.026804599998000,-3085.976170550000000
260,Gimcheon,36.121800000000000,128.119800000000000,8.699999999999999,0.0001000,21.9048004,-11.3893003,85.5070038,10166.2001953,277.2269897,40.7210999,2376,80,-168839.902938000010000,15171.352394899999000
261,Gumi,36.113599999999998,128.336000000000010,8.699999999999999,0.0001000,35.9860992,1.9008300,85.2832031,10162.0000000,290.9809875,22.0189991,3163,62,-149446.798960999990000,13906.778870700000000
262,Gyeongsan-si,35.823300000000003,128.737799999999990,13.500000000000000,0.0001000,40.1271019,-32.4355011,71.0699005,10157.2998047,288.8450012,40.1860008,2082,58,-113784.802793000000000,-18910.437037100000000
263,Kyonju,35.842799999999997,129.211700000000010,13.600000000000000,0.9686040,38.3858986,-23.6121006,74.7322006,10146.0000000,277.4049988,32.1781998,2404,43,-71049.709449300004000,-17191.666829000002000
264,Mungyeong,36.594600000000000,128.199500000000000,14.500000000000000,0.7263630,20.2119007,-13.2297001,85.4357986,10168.4003906,272.0710144,29.8372002,2114,78,-160706.141146999990000,67596.384858999998000
265,Pohang,36.029200000000003,129.364800000000000,9.000000000000000,1.1813500,44.9961014,-20.9965000,73.3955002,10143.0000000,270.0020142,35.9985008,2289,5,-57116.549027900001000,3432.830583510000000
266,Sangju,36.415300000000002,128.160599999999990,16.399999999999999,0.9115700,20.9992008,-19.9768009,82.4347000,10168.0000000,270.0020142,31.0035000,1912,60,-164557.715472000010000,47729.314386300000000
267,Changnyeong,35.541400000000003,128.495100000000010,11.400000000000000,0.0001000,30.4508991,-27.8892994,75.9633026,10162.5996094,275.3949890,32.4085007,3159,66,-136139.248079999990000,-49939.991313300001000
268,Changwon,35.228099999999998,128.681099999999990,8.199999999999999,0.0967129,26.8274994,-54.9020996,67.8308029,10161.7998047,285.3760071,22.8633995,2478,29,-119780.431493000000000,-85014.177495700002000
269,Chinju,35.192799999999998,128.084700000000000,5.800000000000000,0.3885210,23.0737000,-39.4681015,74.3684998,10169.0000000,250.2619934,10.2988997,2361,34,-174003.147476000010000,-88039.538704100007000
270,Kimhae,35.234200000000001,128.881100000000000,10.100000000000000,0.7742940,33.6898994,-45.4808006,68.7667007,10156.2001953,283.5079956,51.4406013,2175,11,-101611.619888000000000,-84563.156195899996000
271,Kyosai,34.850299999999997,128.588600000000010,10.300000000000001,0.7636290,42.4103012,-36.4584007,68.9798965,10165.7001953,288.9140015,71.5569000,3257,10,-128773.543899000000000,-126893.622431000000000
272,Miryang,35.493299999999998,128.748899999999990,12.300000000000001,0.4126320,32.1651001,-32.0476990,73.8759995,10159.7001953,280.3599854,34.8154984,2758,14,-113251.348019000000000,-55612.157902500003000
273,Naeso,35.249699999999997,128.520000000000010,11.000000000000000,0.1767780,26.3829994,-55.7775993,67.6832962,10162.2001953,285.2839966,21.2653008,2951,63,-134372.412998999990000,-82402.921082500005000
274,Sinhyeon,34.882500000000000,128.626700000000000,10.500000000000000,0.7636290,40.6873016,-37.5203018,69.1770020,10165.0996094,287.9440002,66.0018997,4526,17,-125248.992201000000000,-123364.021385000000000
275,Ungsang,35.406100000000002,129.168600000000000,11.500000000000000,1.0199701,33.4417000,-32.7941017,73.1775970,10148.2001953,284.8599854,35.4234009,2726,101,-75344.444378000000000,-65712.919000700000000
276,Yangsan,35.341999999999999,129.033600000000010,11.300000000000001,1.0581900,34.4040985,-39.0260010,70.7042999,10154.0996094,283.0280151,49.6231003,2503,6,-87647.138681299999000,-72726.574276300002000
277,Incheon,37.456499999999998,126.705200000000000,16.000000000000000,1.2887200,26.5830002,14.9258003,94.7059021,10181.0996094,342.9939880,31.2609005,1477,44,-290651.622404999970000,166843.466432999990000
278,Seogwipo,33.253300000000003,126.561800000000010,8.800000000000001,0.0001000,73.9966965,-103.9270020,42.9235992,10180.0000000,339.9790039,15.0122995,4168,71,-319501.264517000000000,-299650.743921999990000
279,Gunsan,35.978600000000000,126.711400000000000,17.000000000000000,0.4152370,46.0625992,30.6706009,93.1287003,10184.9003906,313.6119995,68.8415985,2391,12,-295741.066607000020000,2610.631246439999800
280,Iksan,35.943899999999999,126.954400000000010,15.600000000000000,0.8475510,42.2748985,26.1546993,92.8012009,10183.4003906,293.5260010,54.3653984,1959,19,-274030.066256000020000,-1955.799107670000000
281,Jeonju,35.821899999999999,127.148900000000000,16.699999999999999,1.0989900,39.9770012,32.6041985,96.6440964,10181.0000000,269.0610046,39.0288010,1998,44,-256940.211606000000000,-16044.434786200000000
282,Koch'ang,35.433300000000003,126.700000000000000,12.600000000000000,0.3261270,40.8680000,5.4308100,84.7766037,10188.9003906,323.8330078,40.5838013,2704,43,-298802.089249000010000,-57950.817134600002000
283,Nangen,35.409999999999997,127.385800000000000,7.800000000000000,0.1097750,11.0056000,-12.9830999,89.3001022,10189.0000000,184.0269928,21.0044994,2181,102,-236822.824916000010000,-62424.450899600000000
284,Wanju,35.845100000000002,127.147499999999990,16.699999999999999,1.2638800,39.9832993,32.6892014,96.6793976,10181.0000000,269.0499878,39.0242996,2030,53,-256991.121026999990000,-13462.258948100000000
285,Hwasun,35.061300000000003,126.987500000000000,10.500000000000000,1.3332200,38.5265007,-3.6287999,82.1163025,10190.5996094,274.0109863,28.8041992,2506,74,-274049.715183000020000,-100133.201472999990000
286,Kwangyang,34.975299999999997,127.589200000000010,8.500000000000000,0.0001000,29.7840996,-18.9034996,79.5373001,10177.5000000,311.0190125,42.4128990,2970,17,-219579.704911999990000,-111214.053707000000000
287,Muan,34.990099999999998,126.479000000000000,7.900000000000000,1.3437999,43.1922989,-12.9378004,76.9003983,10200.7001953,327.9700012,67.8186035,3312,20,-320533.414047000000000,-106493.572809000000000
288,Suncheon,34.948099999999997,127.489500000000010,10.100000000000000,0.0001000,28.0016003,-16.2420006,81.2204971,10177.4003906,324.9179993,44.2864990,3470,16,-228730.762893000010000,-114007.705204000000000
289,Yeosu,34.762799999999999,127.665300000000000,9.000000000000000,0.3563150,40.7307014,-31.0708008,71.3367996,10178.0000000,307.6329956,47.8158989,5272,14,-213202.565001000010000,-134999.326964000010000
290,Cheongju-si,36.637200000000000,127.489700000000000,13.900000000000000,1.3368300,24.9666996,2.9642799,90.2111969,10178.0000000,272.8919983,13.1180000,1905,52,-223901.783912999990000,73731.954280899998000
291,Chinch'on,36.856699999999996,127.443299999999990,15.400000000000000,1.3324000,21.8409004,2.8185301,91.4720001,10179.2001953,261.9060059,21.9529991,2041,71,-227386.274280999990000,98234.971409100006000
292,Okcheon,36.301200000000001,127.568000000000000,12.800000000000001,0.0001000,21.3833008,5.2796302,92.7352982,10179.5996094,244.1790009,15.9223003,2462,96,-217864.506031000000000,36208.310117699999000
293,Seoul,37.566000000000003,126.978399999999990,16.000000000000000,1.2874300,15.9991999,4.0036402,94.5278015,10180.0000000,278.9790039,18.9967995,1502,39,-266183.778116000000000,178227.546347000000000
294,Ulsan,35.537199999999999,129.316700000000000,14.199999999999999,1.0156400,32.0287018,-31.8227005,74.0024033,10141.0996094,288.9119873,24.1075993,1541,11,-61822.919240600000000,-51241.235208799997000