FID,city,lat,lon,pm2_5,AOD,AirTemp,DPTemp,RH,SeaLevelPr,WindDir,WindSpeed,NDVI,DEM,POINT_X,POINT_Y
0,Bengbu,32.940800000000003,117.360800000000000,17.500000000000000,0.4973600,142.6159973,17.0594997,56.6101990,10198.0996094,142.4790039,17.9841003,1581,29,-1169870.111430000000000,-263835.768168999990000
1,Chaohu,31.600000000000001,117.866699999999990,24.899999999999999,0.9595550,151.5279999,22.7017002,55.8944016,10199.9003906,130.1459961,16.4402008,2117,12,-1140491.590980000100000,-417506.261770999990000
2,Chizhou,30.661300000000001,117.477800000000000,34.100000000000001,1.1425000,161.3489990,36.5642014,57.1115990,10210.7998047,159.5420074,11.3233995,2512,24,-1188171.732980000100000,-516125.522792999980000
3,Chuzhou,32.321899999999999,118.297800000000000,22.199999999999999,1.1473401,152.2729950,18.6669998,54.6736984,10203.5000000,107.8209991,14.4629002,2463,22,-1091927.444010000000000,-342913.159963999990000
4,Datong,32.620800000000003,117.063199999999990,19.500000000000000,0.8451000,144.8450012,21.6366997,57.2700996,10198.0000000,137.3639984,18.4078999,4064,38,-1201264.272750000000000,-295459.811917999990000
5,Gushu,31.560500000000001,118.481500000000000,24.500000000000000,1.6653800,166.9720001,19.0139008,51.3652000,10205.7998047,122.3550034,10.5733995,2266,13,-1083963.510000000000000,-428871.509500999990000
6,Hefei,31.863900000000001,117.280800000000000,19.600000000000001,1.2571599,143.0160065,19.0874996,57.0489998,10194.0000000,110.0149994,19.9911995,1942,22,-1191280.157150000100000,-381449.387945000020000
7,Huaibei,33.974400000000003,116.791700000000010,21.300000000000001,0.9103860,142.8439941,7.8386698,54.1622009,10191.5996094,49.7067986,15.0188999,1781,51,-1207152.385449999900000,-143029.055618999990000
8,Huainan,32.626399999999997,116.996900000000000,20.399999999999999,1.3475100,145.1569977,22.2546005,57.3568001,10197.9003906,139.5019989,18.4279003,2406,49,-1207239.336679999900000,-294024.184438999980000
9,Chengguanzhen,32.958900000000000,117.165700000000000,21.600000000000001,1.7883800,143.4830017,18.3006001,56.7232018,10197.5000000,146.5670013,17.9438000,2059,20,-1187384.505679999900000,-259482.908663000010000
10,Huangshan,29.711400000000001,118.312500000000000,26.199999999999999,1.1607300,159.0760040,50.6086998,61.5404015,10217.7001953,200.6880035,18.8931007,1786,134,-1120870.655120000000000,-630393.058920999990000
11,Lucheng,31.233599999999999,117.280600000000010,29.399999999999999,1.2185301,149.7230072,27.6858997,57.6603012,10201.7998047,121.1179962,16.2695999,2541,13,-1199372.180360000100000,-450789.000339000020000
12,Mingguang,32.780200000000001,117.963800000000010,19.500000000000000,1.3950200,142.5240021,17.5930004,56.7746010,10200.2001953,138.9510040,17.5303001,3105,15,-1116922.092450000100000,-288607.707440000030000
13,Suixi,33.890700000000002,116.774700000000000,22.000000000000000,0.9863860,143.0269928,9.0137901,54.4182014,10191.9003906,74.8168030,14.9505997,2383,32,-1209866.933509999900000,-152037.907317000000000
14,Suzhou,33.636099999999999,116.978900000000000,19.199999999999999,1.2331100,142.6040039,10.2209997,54.8289986,10193.2001953,101.5599976,16.3498993,1797,32,-1195056.577540000000000,-182602.631082000010000
15,Tangzhai,34.432800000000000,116.591100000000000,17.300000000000001,0.8200010,141.8200073,0.9279230,52.6660995,10191.5000000,61.5824013,14.4405003,2359,46,-1218508.292309999900000,-90041.341666299995000
16,Wuhu,31.337299999999999,118.373500000000010,26.199999999999999,0.8797450,173.3480072,28.3423004,52.1845016,10204.2998047,241.3450012,10.3217001,2243,19,-1096597.235470000000000,-452248.043905999980000
17,Wusong,30.949999999999999,117.783300000000000,38.899999999999999,1.5982600,160.0690002,30.8157005,55.9207001,10206.4003906,174.1999969,12.8765001,1940,10,-1156151.801010000100000,-488054.893822000010000
18,Xuanzhou,30.952500000000001,118.755300000000010,31.100000000000001,1.3980500,173.9270020,30.4913006,52.5764008,10204.4003906,251.5769958,10.2532997,2539,27,-1065373.004149999900000,-498856.030266000020000
19,Changping,40.216099999999997,116.234700000000000,10.900000000000000,1.4735000,131.3630066,-85.7836990,36.3148994,10203.2001953,105.5569992,16.0200005,1710,66,-1157544.126620000000000,550489.810261999960000
20,Daxing,39.740299999999998,116.326899999999990,9.800000000000001,0.7687790,128.0249939,-76.5520020,38.5654984,10203.4003906,106.1230011,16.1945000,1845,43,-1157973.885300000000000,497188.413638999980000
21,Fangshan,39.686999999999998,115.996600000000000,10.300000000000001,0.7748040,118.6569977,-74.5824966,40.5910988,10207.5000000,144.9709930,23.8414001,1887,44,-1186310.830899999900000,495310.842985000000000
22,Liangxiang,39.735999999999997,116.132900000000010,10.300000000000001,1.4436600,123.3389969,-76.0391006,39.4734993,10205.5000000,127.5510025,20.2429008,1557,47,-1174157.238010000000000,499037.191068999990000
23,Mentougou,39.938200000000002,116.093100000000010,10.699999999999999,0.4925180,126.7429962,-82.2492981,37.7149010,10205.0996094,126.4440002,20.1270008,1723,112,-1173999.292440000000000,521701.226581000020000
24,Shunyi,40.121699999999997,116.647800000000000,7.600000000000000,1.4784600,137.8780060,-87.7854996,34.9398994,10200.0000000,70.4204025,10.0551004,1882,44,-1125010.669530000100000,535295.539415000010000
25,Tongzhou,39.904000000000003,116.661800000000000,8.100000000000000,1.5350000,136.2910004,-85.0123978,35.6692009,10200.5996094,75.6397018,10.8357000,1494,29,-1127442.935570000000000,511234.221848000020000
26,Botou,38.066699999999997,116.566599999999990,9.199999999999999,0.6746220,123.9980011,-37.9921989,47.3413010,10201.0000000,110.0009995,20.0004005,1170,18,-1165198.846739999900000,310403.507886999990000
27,Cangzhou,38.316699999999997,116.866699999999990,8.000000000000000,0.7640680,121.4380035,-36.6487007,48.1921005,10201.2001953,114.4100037,20.6963005,1188,11,-1135726.174420000100000,334368.377554000010000
28,Changli,39.704200000000000,119.150600000000000,8.100000000000000,1.2525200,79.3041000,-65.9386978,50.5219994,10213.7001953,141.4049988,13.9623003,1069,18,-922563.686736000000000,463076.551549999970000
29,Chengde,40.951900000000002,117.958800000000000,7.600000000000000,1.0913100,66.9968033,-103.9329987,44.3120003,10229.0000000,339.9249878,20.0020008,1624,317,-1003756.353320000000000,612139.133171000050000
30,Fengrun,39.833300000000001,118.116699999999990,11.600000000000000,1.3075600,92.7587967,-21.4316998,58.9219017,10207.4003906,180.7830048,29.4780998,1705,28,-1007380.875410000000000,487529.738544000020000
31,Langfang,39.509700000000002,116.694700000000000,10.100000000000000,0.2754290,118.9649963,-52.6346016,45.1086998,10203.5996094,131.6670074,23.0520000,1591,17,-1131158.165850000000000,467545.871127000020000
32,Linxi,39.711799999999997,118.449500000000000,12.400000000000000,0.9335170,89.5115967,-35.8941994,55.7932014,10209.0000000,171.3560028,25.5193996,1325,45,-981287.856008999980000,470760.535632000010000
33,Qinhuangdao,39.931699999999999,119.588300000000000,6.300000000000000,0.9585470,85.0025024,-75.5709000,46.9714012,10214.2001953,230.9089966,23.3449993,1092,5,-882836.518334000020000,484099.270024000030000
34,Renqiu,38.698900000000002,116.093600000000000,10.500000000000000,0.7789710,132.0950012,-51.3370018,42.8282013,10197.7998047,97.0904999,21.2490997,1236,8,-1194941.899690000100000,385636.067327000030000
35,Shanhaiguan,40.002499999999998,119.748900000000010,6.400000000000000,1.5732400,83.7558975,-74.8171997,47.4114990,10214.0000000,242.5220032,25.0981998,1385,13,-868465.676281000020000,490461.744507000020000
36,Songling,40.292999999999999,118.269099999999990,9.100000000000000,0.6734380,90.0105972,-84.4181976,43.9687996,10216.9003906,269.0280151,26.1956997,2091,133,-987954.985893000030000,536546.011934999960000
37,Tangjiazhuang,39.743299999999998,118.450999999999990,12.100000000000000,1.4048600,89.6960983,-36.8656998,55.4872017,10209.0996094,173.5429993,25.6973991,1475,68,-980713.979442000040000,474213.854966000010000
38,Tangshan,39.633299999999998,118.183300000000000,15.000000000000000,1.0277600,92.9676971,-14.8820000,60.7299995,10207.0000000,179.9069977,29.9405003,1899,37,-1004726.436020000000000,464829.737559999980000
39,Zhaogezhuang,39.765400000000000,118.411900000000000,12.000000000000000,0.7086510,90.7096024,-33.7109985,56.0774002,10208.5996094,177.1020050,26.9118996,1290,62,-983673.281608000050000,477041.080980000030000
40,Baoying,33.229199999999999,119.309200000000000,21.800000000000001,1.5454900,133.2550049,27.2605991,61.8661003,10198.0996094,182.4140015,18.5900993,1999,6,-988573.759586000000000,-253595.110187999990000
41,City,31.646100000000001,120.742200000000000,54.399999999999999,1.5207200,143.7140045,29.6481991,59.7419014,10215.2998047,149.5579987,20.7283001,1940,10,-872499.590631000000000,-442119.325482000010000
42,Changzhou,31.773599999999998,119.953999999999990,29.300000000000001,1.1964900,148.8869934,30.2905006,58.5764999,10207.0996094,58.4430008,15.7486000,1558,6,-944751.048059999940000,-420697.053299000020000
43,Dazhong,33.199700000000000,120.457800000000010,25.300000000000001,1.0609000,130.7709961,31.2816010,63.7280998,10201.5000000,160.2100067,11.3211002,1846,5,-883704.921225999950000,-267886.083679999980000
44,Dongkan,33.999699999999997,119.830800000000000,24.300000000000001,1.2568300,135.9889984,5.8097100,55.2911987,10197.5996094,179.6779938,20.5398006,2147,5,-932488.776039000020000,-173598.682414999990000
45,Dongtai,32.852300000000000,120.309500000000000,24.399999999999999,1.7263300,131.0000000,36.9865990,65.3693008,10201.0000000,159.9989929,10.0009003,2065,7,-900852.514004000000000,-304929.854866000010000
46,Fengxian,34.703899999999997,116.587200000000000,15.699999999999999,1.0922199,138.8079987,-9.9540796,50.6931992,10191.5996094,83.7570038,14.5454998,2390,38,-1214888.887470000000000,-60132.761206800002000
47,Gaogou,34.017499999999998,119.188599999999990,22.500000000000000,1.5625800,136.1360016,18.6333008,58.6778984,10195.7998047,195.5760040,19.6928005,2953,6,-990489.728597000010000,-165297.027111000000000
48,Gaoyou,32.789299999999997,119.441800000000000,18.100000000000001,1.1011400,136.3710022,25.1166000,60.4161987,10202.0996094,149.3249969,14.4842997,1918,5,-981334.757631000010000,-303511.969546000010000
49,Guiren,33.669699999999999,118.188900000000000,26.100000000000001,1.1195000,135.5500031,15.9131002,58.0861015,10196.4003906,171.1499939,19.4631004,3641,22,-1085240.969070000100000,-193051.539277000000000
50,Haizhou,34.581699999999998,119.128900000000000,20.399999999999999,0.8611210,169.8560028,-18.8059006,42.4416008,10187.9003906,241.2929993,11.7820997,1658,10,-989226.309308000030000,-102356.431718000010000
51,Hede,33.772199999999998,120.261799999999990,26.399999999999999,1.3841900,130.1670074,11.8591003,58.3642006,10200.7001953,167.3379974,18.6116009,1910,2,-895742.599091000040000,-202794.145450999990000
52,Huai'an,33.588600000000000,119.019200000000000,26.899999999999999,1.6391500,132.0140076,40.5584984,66.1610031,10196.0000000,199.9069977,19.9969006,1675,14,-1010874.062350000000000,-210930.864777000010000
53,Huilong,31.811100000000000,121.655000000000000,49.100000000000001,1.1221300,131.6450043,60.0348015,72.4769974,10215.9003906,175.9989929,20.5270996,2101,7,-785715.497665000030000,-431654.741331000000000
54,Hutang,31.534300000000002,119.489999999999990,34.500000000000000,1.3016500,150.1390076,34.4617996,59.3945007,10206.0000000,1.4272600,12.2954998,5067,8,-990454.257109000000000,-442490.639929000000000
55,Jiangyan,32.506100000000004,120.142799999999990,23.899999999999999,1.5321600,132.0760040,33.6300011,64.0558014,10201.9003906,156.2940063,11.0121002,1897,9,-919755.568349999960000,-341624.896619000010000
56,Jiangyin,31.911000000000001,120.263000000000010,47.700000000000003,0.7911540,142.9179993,30.8962994,60.2994995,10208.5996094,112.8570023,17.2124004,1848,10,-914613.536207000030000,-408477.307786000020000
57,Jinsha,32.089799999999997,121.073500000000000,37.899999999999999,1.5707200,131.4019928,53.5256004,70.4225006,10214.5000000,171.8919983,20.1874008,2129,7,-837492.445526000000000,-396011.138564999970000
58,Juegang,32.317399999999999,121.185500000000000,34.500000000000000,0.6401640,129.2819977,57.1665001,72.2825012,10213.9003906,174.0399933,19.9407997,2313,8,-825001.420362000000000,-371809.867952000000000
59,Kunshan,31.377600000000001,120.954300000000000,63.100000000000001,1.1226701,150.0970001,16.8160000,54.7211990,10219.0000000,157.1909943,21.1327000,1977,15,-855131.909891000020000,-473644.952591000010000
60,Licheng,31.428100000000001,119.483500000000010,35.600000000000001,1.0020100,150.0000000,34.9970016,59.5780983,10206.0000000,0.0042227,12.5274000,1949,10,-992185.425903000050000,-454135.302704999980000
61,Mudu,31.256000000000000,120.518600000000010,56.100000000000001,1.3165500,148.7619934,32.3581009,59.1735992,10213.7998047,128.5910034,20.1564999,1996,9,-897110.388310999960000,-483150.540847000030000
62,Nanjing,32.061700000000002,118.777800000000000,18.500000000000000,1.1206300,163.4490051,12.8594999,50.6775017,10206.5996094,54.9432983,10.6247997,1240,23,-1050725.230460000000000,-376875.616416000000000
63,Nantong,32.030299999999997,120.874700000000000,28.899999999999999,1.0227799,135.0039978,41.7825012,65.6641006,10213.5000000,162.6609955,19.8764992,1968,6,-856544.748798000040000,-400858.268166000020000
64,Pizhou,34.311399999999999,117.950300000000000,22.899999999999999,1.2679501,142.0399933,-9.5598803,50.0710983,10193.5996094,124.0299988,17.6217995,1564,27,-1098516.240560000100000,-119579.262072000000000
65,Qinnan,33.253100000000003,119.913300000000010,25.300000000000001,1.5126899,131.6000061,27.1035004,62.2742996,10201.0996094,162.5549927,13.1037998,3168,2,-933053.626501000020000,-256909.325114000010000
66,Songling,31.193300000000001,120.717600000000000,56.600000000000001,1.3433501,149.0950012,29.2660999,58.2453003,10216.2998047,144.9589996,21.1194000,3142,5,-879031.180062000060000,-491882.505087000030000
67,Suicheng,33.896299999999997,117.933100000000000,26.500000000000000,1.2055000,139.1190033,4.0590801,54.0868988,10194.7998047,124.9380035,18.8351002,1774,22,-1105471.079250000000000,-165178.560494000000000
68,Suzhou,31.304099999999998,120.595400000000000,55.600000000000001,1.4901700,148.0429993,30.5086002,58.8530006,10214.7001953,135.6790009,20.6422005,2034,9,-889455.618804999980000,-478546.377723000010000
69,Taixing,32.166699999999999,120.013600000000000,27.899999999999999,0.9361540,140.6950073,29.2346001,60.4235001,10205.7001953,119.9830017,14.3494997,1312,6,-935189.888976000020000,-377878.674659000010000
70,Taizhou,32.490699999999997,119.908100000000000,21.100000000000001,1.4939899,134.0339966,30.8551006,62.6924019,10202.5996094,149.4880066,11.8472004,1541,6,-941591.898074000030000,-341085.023818999990000
71,Tongshan,34.180500000000002,117.157100000000000,19.600000000000001,1.0603700,142.9810028,8.6674204,54.3408012,10191.0000000,0.8689440,16.5912991,2127,37,-1171472.464830000000000,-124778.204092000000000
72,Wuxi,31.568899999999999,120.288600000000000,40.200000000000003,1.4335800,147.0030060,31.5590992,59.4108009,10210.0000000,95.7520981,18.6580009,1355,12,-915607.446173000030000,-446481.413044999990000
73,Xiannu,32.428100000000001,119.560500000000000,15.500000000000000,1.5883700,141.7879944,25.4291992,59.0789986,10204.2001953,123.2620010,13.5901003,2326,11,-974346.872458999980000,-344580.971773999980000
74,Xiaolingwei,32.032400000000003,118.854000000000000,20.399999999999999,1.5617800,164.0549927,12.0077000,50.3428993,10206.7001953,50.6924019,10.4368000,2549,15,-1044015.396800000000000,-380925.170921000010000
75,Xinghua,32.939200000000000,119.834200000000000,21.300000000000001,1.5587500,131.7400055,31.5983009,63.5490990,10201.2998047,158.9349976,11.3091002,2011,7,-943657.734935999960000,-290830.892102000010000
76,Xinpu,34.599699999999999,119.159400000000010,20.399999999999999,1.4032700,169.8939972,-18.8442993,42.4268990,10187.9003906,241.2239990,11.8132000,1356,6,-986270.479433999980000,-100676.638277000010000
77,Yancheng,33.357500000000002,120.157300000000010,25.699999999999999,1.1780400,130.9839935,26.0858994,62.1489983,10201.2998047,161.9329987,13.0276003,2363,3,-909618.465486999950000,-247676.734147999990000
78,Yangzhou,32.397199999999998,119.435800000000000,14.300000000000001,1.8249100,145.3739929,23.7240009,57.6959000,10204.7001953,111.6490021,13.7215996,1778,15,-986191.701424999980000,-346737.831629999970000
79,Yicheng,31.360600000000002,119.820200000000000,43.200000000000003,0.9591840,150.4900055,33.4849014,59.0353012,10206.4003906,16.9972000,15.3149004,1171,6,-961450.839246000050000,-464953.056701000020000
80,Zhangjiagang,31.864999999999998,120.538900000000000,44.799999999999997,1.2806000,140.5650024,32.7216988,61.4445992,10211.4003906,138.0140076,19.0555000,1914,11,-889381.361042000000000,-416109.643221999980000
81,Zhenzhou,32.280299999999997,119.170000000000000,16.600000000000001,1.7410200,154.3289948,19.8111992,54.4748993,10205.7001953,83.0184021,12.5832005,2180,10,-1012018.637060000000000,-356913.988107000010000
82,Zhongxing,33.703899999999997,118.679199999999990,24.699999999999999,1.5051600,132.2440033,37.0662994,65.0351028,10196.0996094,198.7310028,19.9687004,1721,17,-1040377.387380000000000,-194622.960055000000000
83,Baishan,41.938499999999998,126.419700000000010,9.000000000000000,1.4476300,14.4723997,-33.1086006,79.8181992,10188.0996094,187.9380035,11.8684998,1045,472,-295932.798491999970000,664553.523502000030000
84,Erdaojiang,41.776400000000002,126.031899999999990,12.800000000000001,1.5847600,23.2646999,-36.3454018,75.4261017,10186.9003906,233.7129974,16.5895004,1469,408,-328770.264269999990000,647881.764989000050000
85,Hepingjie,42.059699999999999,126.915800000000000,10.500000000000000,1.6480300,11.5478001,-31.9050007,81.3873978,10189.0996094,203.4270020,10.2786999,2149,729,-254484.873866999990000,676546.317679999980000
86,Linjiang,41.806899999999999,126.907799999999990,10.900000000000000,1.7582600,9.2646799,-31.9051991,82.2639008,10190.9003906,294.9649963,10.0001001,905,339,-256157.598520000000000,648625.214274000030000
87,Sanchazi,42.081699999999998,126.600300000000000,9.900000000000000,1.3109000,12.9245996,-33.3418007,80.3088989,10188.5000000,191.9880066,10.9945002,1802,557,-280391.213267999990000,679842.834743999990000
88,Anshan,41.123600000000003,122.989999999999990,23.500000000000000,1.7413700,44.7374001,-35.9836006,68.3991013,10197.2998047,248.2140045,23.2910995,1286,49,-585681.196650999950000,590017.027501999980000
89,Beipiao,41.791899999999998,120.779200000000000,9.400000000000000,1.4286400,71.0000992,-107.1039963,42.8301010,10215.9003906,346.2269897,53.9669991,1942,275,-761104.832023000000000,678977.937646999960000
90,Benxi,41.288600000000002,123.765000000000000,45.899999999999999,1.7254900,44.0004005,-4.2105398,79.8467026,10198.0000000,289.9949951,20.0007000,1566,199,-519889.600918999990000,603845.338653999960000
91,Chaoyang,41.570300000000003,120.458600000000000,12.400000000000000,0.8528430,77.9989014,-109.9869995,40.8977013,10217.0000000,359.9949951,59.9985008,694,163,-790042.911953000000000,657139.001026000010000
92,Dalianwan,39.028599999999997,121.694999999999990,23.100000000000001,1.2207800,70.8696976,-42.4511986,58.8241997,10204.0000000,219.7700043,10.1043997,1598,22,-714839.199274000010000,367096.904574999990000
93,Dandong,40.129199999999997,124.394700000000000,27.600000000000001,1.1173400,30.6576996,-4.9247799,84.6457977,10206.9003906,229.7590027,19.7556992,832,10,-475773.038566000000000,472416.429696000010000
94,Dashiqiao,40.637300000000003,122.502500000000000,15.500000000000000,0.9367840,41.5606003,-19.6819992,75.0364990,10202.9003906,82.1696014,29.7889004,1212,17,-630804.024713000050000,539350.024162000050000
95,Dongling,41.814399999999999,123.575800000000000,25.699999999999999,1.4219199,53.8456993,-79.2182999,53.1721001,10188.0996094,319.5780029,20.0056992,1595,52,-531261.530525999960000,662915.547192999980000
96,Fengcheng,40.453600000000002,124.071700000000010,29.000000000000000,1.4067700,28.8694000,-17.9736004,80.2301025,10201.0000000,232.0469971,18.8229008,1276,65,-500684.632076999990000,509933.576848000000000
97,Fushun,41.855800000000002,123.923300000000000,26.100000000000001,1.9470600,47.3362999,-54.9590988,61.6724014,10190.0996094,306.5480042,19.5727997,2037,87,-502310.259828999990000,665641.909191000040000
98,Gongchangling,41.116700000000002,123.450000000000000,34.200000000000003,0.7914410,43.7766991,-21.3244991,73.6940002,10197.0000000,283.1359863,20.4657993,3935,207,-547479.525231000040000,586581.222026000030000
99,Haicheng,40.851599999999998,122.747500000000000,17.899999999999999,1.3776100,43.0854988,-29.2924004,71.1688004,10201.2998047,146.5330048,27.8187008,931,33,-608339.637039999940000,561463.426371000010000
100,Heishan,41.689200000000000,122.112799999999990,9.699999999999999,1.3131800,53.4495010,-63.6477013,57.4832993,10201.2001953,278.6900024,32.6018982,902,26,-652825.486437999990000,657992.945625000050000
101,Huanren,41.264699999999998,125.366699999999990,22.600000000000001,1.4181000,31.3605995,-34.8522987,73.1614990,10189.7001953,257.8479919,21.0135994,2444,260,-386819.334180000010000,593753.923620000020000
102,Hushitai,41.932200000000002,123.511399999999990,20.800000000000001,1.6432700,53.0453987,-74.3198013,54.6654015,10188.5000000,317.5549927,20.0671997,2003,62,-535576.553793000060000,676264.726298999970000
103,Jinzhou,41.107799999999997,121.141700000000000,9.699999999999999,1.3845100,90.9788971,-93.9076996,41.7742996,10208.0000000,339.9500122,59.9868011,855,25,-739180.768047000050000,600835.298283000010000
104,Jiupu,41.066699999999997,122.950000000000000,22.899999999999999,1.1895500,44.3390007,-34.9785995,68.8563004,10198.0996094,232.2400055,24.0876007,1141,30,-589516.744739999990000,583974.845113000020000
105,Kuandian,40.728600000000000,124.784700000000000,28.500000000000000,1.6846200,28.0030003,-43.9774017,71.1201019,10201.0000000,220.0099945,29.9990997,1216,281,-438836.392662999980000,536921.396000999960000
106,Langtou,40.026100000000000,124.328599999999990,26.800000000000001,1.2880900,17.3997002,-2.1930201,91.2080002,10204.0996094,220.2870026,10.2852001,1641,13,-482094.692038999990000,461327.573110000000000
107,Lianshan,40.764299999999999,120.853300000000000,9.900000000000000,0.8175050,82.6813965,-80.9422989,46.2321014,10208.7998047,315.7839966,53.4070015,1218,17,-767022.832233999970000,565192.731040999990000
108,Liaoyang,41.271900000000002,123.173100000000010,27.399999999999999,1.3655699,45.7668991,-36.3028984,67.9711990,10195.2998047,281.7749939,21.2236004,942,30,-569165.709691000050000,605307.515121000000000
109,Liaozhong,41.506100000000004,122.724200000000000,16.199999999999999,1.5919800,48.1449013,-51.0471001,62.6178017,10195.7001953,273.6919861,24.3983994,1044,16,-604215.357652000040000,633858.327441000030000
110,Linghai,41.165300000000002,121.366699999999990,7.700000000000000,1.1897000,89.1341019,-89.8059998,42.9856987,10208.0000000,334.6799927,58.7905998,1202,26,-719918.474969999980000,605490.308276999970000
111,Lingyuan,41.240000000000002,119.401100000000000,7.900000000000000,1.2559299,67.0243988,-92.3037033,46.9360008,10221.2001953,296.1000061,34.6799011,1055,396,-881122.825333000040000,629861.042738000050000
112,Lushun,38.799999999999997,121.266700000000000,12.800000000000001,1.0033300,70.1169968,-40.3083000,59.6383018,10204.2001953,216.4250031,10.6348000,328,6,-753849.825236000000000,345041.974325000020000
113,Nanpiao,41.098199999999999,120.747900000000000,10.100000000000000,0.9516190,87.1065979,-91.5767975,43.0029984,10209.2001953,336.0679932,58.0493011,1932,94,-771874.271515000030000,602829.524160000030000
114,Nantai,40.924100000000003,122.804400000000000,19.500000000000000,1.4084300,43.5491982,-31.6669006,70.2137985,10200.4003906,173.8099976,26.7938004,1572,34,-602931.136886000050000,569117.201450999940000
115,Panshan,41.188099999999999,122.049400000000010,6.800000000000000,1.1671700,53.3325005,-47.0541992,62.3345985,10203.5996094,187.5970001,34.9972992,955,11,-663139.970456999960000,603161.545968999970000
116,Pulandian,39.395299999999999,121.966900000000000,12.300000000000001,0.8125650,64.2972031,-36.1062012,62.4916000,10203.7998047,213.8159943,14.8562002,1201,16,-687989.901791000040000,405695.761698000020000
117,Shenyang,41.792200000000001,123.432800000000000,21.199999999999999,1.6680599,53.9184990,-79.9123001,52.9734993,10188.0996094,319.7560120,20.0074005,1037,52,-543224.104465999990000,661254.139183999970000
118,Sujiatun,41.659199999999998,123.339200000000010,22.000000000000000,1.7718700,53.3310013,-74.3126984,54.5956993,10188.5000000,317.7349854,20.0653000,1029,41,-552073.468241999970000,647104.089980000050000
119,Wafangdian,39.618299999999998,122.008100000000000,11.900000000000000,1.2885300,58.3857994,-34.8555984,64.5903015,10203.5000000,205.9600067,19.3437996,1584,100,-682291.221175999960000,430064.471624000000000
120,Xiaoshi,41.297100000000000,124.120900000000010,40.299999999999997,0.9404080,42.7126007,-16.6695995,75.7163010,10197.0000000,285.5729980,20.2080994,1267,207,-490257.295525999970000,602940.293566999960000
121,Xingcheng,40.616700000000002,120.716700000000000,10.100000000000000,1.4143699,76.5795975,-73.5811005,49.2753983,10209.4003906,292.6770020,46.4297981,1460,10,-780104.216923999950000,550001.330702999960000
122,Xiuyan,40.292800000000000,123.274400000000000,21.699999999999999,1.2193700,36.0148010,-24.5895996,75.2051010,10200.0000000,217.8630066,20.6196003,1281,81,-569087.210515000040000,496522.751539000020000
123,Yebaishou,41.397500000000001,119.640800000000000,8.199999999999999,1.6263000,66.6219025,-94.7297974,46.4613991,10219.7001953,315.6969910,43.4095993,1372,414,-859336.761508999970000,645044.713723000020000
124,Yingkou,40.664800000000000,122.228300000000000,12.699999999999999,1.4219400,41.0026016,-15.0467997,76.9072037,10203.0000000,70.0343018,30.0002003,971,3,-653465.407145999950000,544193.592210000030000
125,Zhuanghe,39.700800000000001,122.991100000000000,17.300000000000001,0.9112170,41.1768990,-25.1667995,73.2288971,10200.7001953,215.0019989,20.0396004,1773,5,-598103.973010999970000,432733.419281999990000
126,Anqiu,36.434199999999997,119.192500000000000,14.800000000000001,0.2891860,83.5541000,-22.2656002,61.1772003,10208.7001953,75.5992966,22.1005001,1372,59,-961076.095777999960000,101714.677030000010000
127,Bianzhuang,34.848599999999998,118.044700000000010,16.500000000000000,1.2628500,149.5260010,-55.1992989,38.9329987,10193.4003906,276.3009949,12.6801996,2587,46,-1083013.536480000000000,-61358.786943100000000
128,Binzhou,37.366700000000002,118.016700000000000,4.800000000000000,1.0444800,112.8229980,-30.2856007,51.6264992,10202.0996094,111.1009979,13.5103998,1499,14,-1051257.954029999900000,216802.547752000010000
129,Boshan,36.483300000000000,117.833299999999990,21.699999999999999,1.0209000,132.2830048,-40.4161987,45.1086006,10206.2001953,97.2179031,27.0084000,2977,386,-1079543.090469999900000,121363.443248000000000
130,Changqing,36.557499999999997,116.727200000000000,12.500000000000000,1.1179000,143.0890045,-28.4214993,45.5603981,10194.2001953,91.3970032,20.0674000,1667,39,-1174872.585490000000000,142333.768545000000000
131,Chengtangcun,35.083599999999997,117.190700000000010,13.100000000000000,0.8992250,134.5169983,-36.2335014,45.5736008,10192.7998047,125.1009979,14.3975000,1870,73,-1155807.052760000100000,-25630.700765000001000
132,Chengyang,35.579400000000000,118.832800000000010,18.399999999999999,0.5348890,143.2510071,-42.4782982,42.5570984,10197.5000000,133.8589935,37.9939003,1446,112,-1003485.011510000000000,10897.383983000000000
133,Dengzhou,37.808199999999999,120.759100000000000,10.600000000000000,0.8741120,43.1076012,-17.5503006,75.2623978,10209.7998047,109.6070023,10.1251001,1118,23,-808271.895004000050000,239414.936382999990000
134,Dezhou,37.451300000000003,116.310500000000000,10.300000000000001,1.5932000,103.8679962,-6.0883799,60.2915001,10197.2001953,110.2119980,29.0821991,1245,24,-1196908.472110000000000,245799.643336000010000
135,Dongcun,36.776699999999998,121.159700000000000,8.800000000000001,1.2403001,81.0001984,-49.9930000,54.1717987,10209.0000000,40.0023003,20.0002003,1302,38,-784196.705848000010000,121988.619525000000000
136,Dongdu,35.850000000000001,117.700000000000000,19.800000000000001,0.7497220,135.4459991,-45.5195007,43.4028015,10201.7998047,133.7160034,23.7970009,2085,200,-1100041.933230000100000,52992.721553299998000
137,Feicheng,35.260599999999997,117.967500000000000,16.100000000000001,1.0871800,152.9969940,-88.9219971,32.5148010,10193.0000000,339.9590149,10.0019999,1771,114,-1084419.181799999900000,-15034.394393099999000
138,Gaomi,36.383299999999998,119.752799999999990,11.699999999999999,1.6768100,107.8450012,-36.4712982,51.2436981,10204.7001953,58.3051987,32.4090996,1293,25,-912395.176043999960000,90704.091015300000000
139,Hanting,36.770800000000001,119.210800000000010,12.000000000000000,1.6440200,75.0071030,-15.0270004,65.8218994,10210.0000000,70.0071030,20.0013008,1732,17,-955290.598910999950000,138726.774846999990000
140,Jiaozhou,36.283900000000003,120.003300000000000,9.400000000000000,1.2675400,121.4670029,-48.5013008,45.5112991,10203.2001953,30.5916004,38.4925003,1358,9,-891457.430662999980000,77394.146739300006000
141,Jiehu,35.542800000000000,118.455000000000000,18.399999999999999,1.3252800,143.9900055,-51.5635986,40.5984001,10197.2001953,215.5059967,21.1982002,1776,114,-1037454.769560000000000,10810.317833999999000
142,Jimo,36.389699999999998,120.462200000000000,8.699999999999999,1.3815500,124.2099991,-54.4099007,43.6934013,10203.0996094,21.4080009,39.6586990,1473,26,-849767.889810999970000,84999.775823499993000
143,Jinan,36.668300000000002,116.997200000000010,12.699999999999999,1.0357400,144.9960022,-28.9969997,45.0564995,10194.0000000,90.0030975,20.0002995,1310,33,-1149735.806150000100000,151320.385313000010000
144,Jining,35.405000000000001,116.581400000000000,18.899999999999999,1.5274600,120.8330002,-33.1567001,49.1385002,10191.0996094,12.8713999,15.4867001,1284,43,-1205014.292470000000000,17164.925172600000000
145,Laiwu,36.192799999999998,117.656899999999990,22.800000000000001,0.7143390,133.9799957,-41.9389992,44.4449005,10205.5996094,99.5702972,27.1198006,1919,181,-1099045.218099999900000,91291.086003999997000
146,Laixi,36.859200000000001,120.526900000000000,8.500000000000000,1.0683500,89.5910034,-36.5425987,55.5997009,10206.5996094,61.0512009,24.5186996,1982,54,-838930.641972000010000,136388.218320999990000
147,Laiyang,36.975800000000000,120.713600000000000,8.300000000000001,1.2009799,81.4569016,-36.5337982,57.6833992,10207.7998047,61.5077019,20.9894009,1667,40,-821286.485637999950000,147700.129562999990000
148,Linqu,36.515599999999999,118.539700000000000,15.400000000000000,0.6633220,115.3330002,-34.9371986,49.9273987,10207.7001953,92.8498001,25.9461002,1635,102,-1017304.710850000000000,117330.331278000000000
149,Linyi,35.063099999999999,118.342800000000000,17.199999999999999,1.4605500,151.5039978,-58.7122993,37.9449997,10193.2998047,285.1520081,13.5075998,1625,71,-1053626.547100000100000,-40949.596164800001000
150,Longgang,37.651800000000001,120.330600000000000,7.700000000000000,0.7253350,61.9819984,-3.1183100,73.8994980,10207.0000000,90.0370026,10.0042000,1198,4,-847190.328098000030000,225756.403872000000000
151,Luofeng,37.365000000000002,120.410000000000000,6.800000000000000,1.5310200,62.8325005,-9.9617796,71.2679977,10207.0996094,92.2675018,11.2419004,1745,68,-843533.742516000060000,193350.572340999990000
152,Mengyin,35.706899999999997,117.926400000000000,18.899999999999999,1.3957400,141.3750000,-54.9196014,40.4053993,10199.2001953,202.8090057,19.4115009,2273,183,-1082043.267870000100000,34670.796525999998000
153,Mingshui,36.716700000000003,117.500000000000000,15.000000000000000,1.0934200,134.5760040,-30.4745007,46.8373985,10197.4003906,97.9689026,20.7112999,1709,73,-1105303.324790000000000,150839.047495000010000
154,Mizhou,35.994700000000002,119.397499999999990,18.399999999999999,1.0194200,126.2669983,-39.1689987,46.6035004,10201.2001953,78.0558014,43.0340996,1406,62,-948368.897252999940000,51134.852275500001000
155,Nanding,36.748300000000000,118.055800000000000,15.000000000000000,1.4703100,122.3229980,-34.4802017,48.5056992,10204.5996094,101.5879974,23.8295002,1399,71,-1056453.181260000000000,148161.328237999990000
156,Nanma,36.184800000000003,118.154900000000000,20.300000000000001,1.1514699,135.9989929,-49.9929008,42.3713989,10210.0000000,90.0026016,29.9995995,1434,283,-1055457.610820000100000,84904.845266699995000
157,Ninghai,37.384200000000000,121.608600000000000,10.800000000000001,0.9473090,65.7434998,-23.9463005,65.8018036,10207.7001953,145.2879944,25.7672997,1346,13,-738725.524067000020000,185747.248452000000000
158,Ningyang,35.764200000000002,116.791400000000000,17.199999999999999,1.0955900,119.8949966,-34.4257011,49.0441017,10191.2001953,6.6365099,17.9188004,1582,64,-1181183.469020000000000,54165.597041100002000
159,Pingdu,36.784399999999998,119.946400000000000,9.100000000000000,1.5723701,94.6358032,-30.8113995,55.8656006,10206.0996094,69.4975967,26.6011009,1443,56,-890696.219930000020000,133264.704266999990000
160,Pingyi,35.500599999999999,117.630799999999990,16.600000000000001,0.4778200,145.5769958,-63.1081009,38.1194992,10194.2001953,260.4379883,12.7778997,1797,153,-1110987.916120000000000,15236.026531400001000
161,Pingyin,36.283099999999997,116.445300000000000,15.800000000000001,1.4708101,138.7180023,-28.0790005,46.5205994,10192.0996094,94.2171021,17.3460999,1267,44,-1203608.806889999900000,115553.887673000000000
162,Qingdao,36.066000000000003,120.369400000000000,10.199999999999999,1.2517000,124.2099991,-53.2294998,43.9439011,10203.0000000,23.0051994,39.6917000,1866,42,-861516.820681000010000,49997.176948900000000
163,Qingyang,37.495800000000003,121.258100000000000,11.300000000000001,0.8829350,61.6752014,-23.0566998,67.3210983,10208.0000000,116.0650024,17.4591007,1031,9,-768199.858330999970000,200811.860374999990000
164,Qingzhou,36.696700000000000,118.479699999999990,13.199999999999999,1.2707100,107.0550003,-31.0972004,52.7673988,10207.0996094,92.4636993,23.9353008,1420,98,-1020160.905790000000000,137951.215201999990000
165,Qufu,35.596699999999998,116.991100000000000,17.100000000000001,1.0336000,119.2750015,-34.9847984,49.0475006,10191.0996094,2.3482101,17.5470009,1666,69,-1166080.832400000000000,33303.635509300002000
166,Rizhao,35.427500000000002,119.455299999999990,18.199999999999999,0.9034880,149.9929962,-59.7981987,37.9954987,10197.0000000,40.1791000,69.9389038,1436,19,-949994.136260000060000,-12126.173636300000000
167,Shanting,35.075299999999999,117.457800000000010,11.500000000000000,1.2939100,144.6920013,-53.3473015,40.1259003,10193.4003906,237.6280060,12.2795000,2458,147,-1132211.700140000100000,-29680.588025400000000
168,Shengli,37.462699999999998,118.491699999999990,6.900000000000000,1.2934200,101.7500000,-29.0298004,54.5730019,10204.2998047,110.9209976,18.3540993,1574,8,-1008867.480550000000000,222374.244140000000000
169,Shizilu,35.171100000000003,118.828900000000000,18.500000000000000,1.3173900,160.2689972,-32.6208000,41.4212990,10191.2001953,206.4649963,21.8087006,1471,102,-1008922.982040000000000,-34165.618891200000000
170,Shouguang,36.880000000000003,118.737500000000000,12.500000000000000,1.7259300,83.8912964,-22.0335999,61.1512985,10208.7001953,79.3012009,20.9148006,1469,25,-995246.318223000040000,155523.904157000010000
171,Sishui,35.648899999999998,117.275800000000000,16.899999999999999,1.2430300,125.3489990,-38.4790001,46.9488983,10192.7998047,58.2677002,17.7630997,1323,114,-1140242.277650000100000,35689.693850000003000
172,Suozhen,36.953899999999997,118.104699999999990,10.100000000000000,0.8546290,114.9029999,-31.1028004,50.9502983,10203.4003906,105.1849976,20.4356995,1919,20,-1049364.449150000000000,170317.387057999990000
173,Tai'an,36.185299999999998,117.120000000000000,15.600000000000000,0.9135720,134.2330017,-32.1390991,46.5355988,10195.7001953,88.0947037,20.8306999,1150,140,-1146170.442379999900000,96647.454861699996000
174,Taozhuang,34.850000000000001,117.333299999999990,11.699999999999999,0.9210230,141.0980072,-28.3209000,45.9830017,10192.9003906,137.1190033,14.2451000,4065,52,-1146415.623020000100000,-53068.949453100002000
175,Tianfu,37.197200000000002,122.052300000000000,8.100000000000000,0.8633800,55.8821983,-15.5279999,71.6538010,10208.4003906,246.4920044,43.1511002,1336,41,-701664.728496999950000,161756.973100000000000
176,Weichanglu,37.180700000000002,119.942200000000000,4.400000000000000,0.7964790,73.6101990,-19.6959991,64.7862015,10207.0000000,91.6368027,16.6431999,1569,45,-886435.118966000040000,177121.458772999990000
177,Weifang,36.710000000000001,119.101900000000000,13.000000000000000,1.5090300,75.1259003,-15.2786999,65.7078018,10210.0000000,70.1175995,20.0228004,1050,30,-965581.346428000020000,133082.444408999990000
178,Weihai,37.509099999999997,122.113600000000010,17.800000000000001,0.9154570,50.2065010,-11.6246004,74.9209976,10208.7001953,284.9649963,48.4998016,-1810,12,-693400.142181999980000,195870.717469000000000
179,Wenshang,35.727499999999999,116.496100000000000,17.100000000000001,0.8431320,122.5930023,-32.5484009,48.8983994,10191.2001953,22.1616001,15.9188995,2405,44,-1207662.153329999900000,53741.295204900001000
180,Xiazhen,34.802199999999999,117.111700000000000,13.100000000000000,1.2002600,139.3589935,-16.8251991,48.9473991,10192.2998047,82.5100021,15.2927999,2526,37,-1166812.387069999900000,-55709.124147000002000
181,Xiazhuang,34.916100000000000,118.638900000000010,18.800000000000001,1.1984900,162.2050018,-29.7057991,41.6511002,10190.2001953,233.0370026,15.0212002,1789,61,-1029066.460140000000000,-60344.376414600003000
182,Xindian,36.797499999999999,118.294400000000000,11.100000000000000,0.4338050,112.9369965,-32.0872002,51.1568985,10205.5996094,98.8556976,23.3290997,2886,73,-1034982.316020000000000,151030.849605000000000
183,Xintai,35.900599999999997,117.751900000000010,20.399999999999999,0.8950910,135.3719940,-45.6632996,43.3867989,10203.7001953,124.0889969,25.4200993,1618,198,-1094771.907560000000000,57990.302985000002000
184,Yantai,37.476500000000001,121.440800000000000,11.000000000000000,1.5512100,63.7625008,-23.6375999,66.4974976,10207.7998047,130.1360016,21.0695000,1948,24,-752460.247626999980000,197250.284143000000000
185,Yanzhou,35.552799999999998,116.828599999999990,17.600000000000001,1.1553800,119.0009995,-34.9976997,49.1041985,10191.0000000,0.0108806,17.0289993,1472,54,-1181038.072170000100000,30422.311246300000000
186,Yatou,37.156599999999997,122.437600000000000,9.800000000000001,1.1118400,46.0984993,-5.9428101,78.4332962,10209.5000000,323.1749878,56.5084000,1728,13,-668210.269392000050000,154550.919111000000000
187,Yinzhu,35.878599999999999,119.975300000000000,25.399999999999999,1.6506500,128.0769958,-44.2380981,45.1166000,10201.2001953,53.4193001,44.8418999,1466,8,-898548.767436999940000,32823.788514799999000
188,Yishui,35.784700000000001,118.628100000000000,18.600000000000001,0.8597250,135.5410004,-43.0559998,43.9031982,10202.0996094,134.3520050,29.4246998,1588,152,-1019014.041170000000000,35696.927824799997000
189,Yucheng,34.928899999999999,116.465300000000000,15.600000000000000,0.9656780,134.8419952,-19.5457001,49.2887001,10190.9003906,93.1200027,13.8921003,2348,36,-1222382.119290000100000,-33827.600928699998000
190,Zaozhuang,34.864699999999999,117.554199999999990,11.800000000000001,1.4426200,145.0180054,-42.6468010,42.1945000,10193.2998047,211.3589935,12.9510002,1358,81,-1126539.770270000000000,-54023.371577799997000
191,Zhoucheng,35.912199999999999,116.311700000000000,16.300000000000001,1.1510201,134.6529999,-29.1492996,47.1194992,10190.2998047,72.5755997,14.4108000,3303,42,-1220996.249469999900000,76377.091390799993000
192,Zhoucun,36.816699999999997,117.816700000000000,14.400000000000000,1.2932200,124.3349991,-32.3387985,48.5709991,10201.7001953,103.8089981,21.3654995,2487,48,-1076323.786820000000000,158322.592054999990000
193,Zhuangyuan,37.305500000000002,120.827500000000000,8.500000000000000,1.3678300,67.4781036,-23.3104992,65.4822006,10207.7001953,91.2205963,15.9046001,1489,133,-807771.655543999980000,183231.800424999990000
194,City,35.994999999999997,119.402600000000010,18.600000000000001,0.6538760,126.2679977,-39.1976013,46.5968018,10201.2001953,77.8214035,43.0792007,1520,67,-947914.323987000040000,51118.405880400001000
195,Zibo,36.790599999999998,118.063300000000000,14.199999999999999,1.0606600,120.4960022,-33.4851990,49.1347008,10204.2001953,102.5059967,23.0156002,1456,50,-1055217.132610000000000,152747.175625000000000
196,Zoucheng,35.400599999999997,116.965599999999990,16.699999999999999,0.9312470,120.0090027,-34.8387985,48.9221992,10191.2001953,8.4740896,16.3476009,1479,77,-1171182.646220000000000,11997.316239800000000
197,Songjiang,31.035900000000002,121.214600000000000,50.600000000000001,1.3242700,150.8609924,18.1481991,54.8791008,10219.7998047,158.3630066,22.9200993,2733,1,-833727.227357000000000,-513620.626549999990000
198,Zhujiajiao,31.107600000000001,121.057000000000000,55.399999999999999,1.7629499,150.8959961,18.8953991,55.0625992,10219.2998047,157.0460052,22.0286007,2760,9,-847923.148454000010000,-504347.264940000020000
199,Hangu,39.248899999999999,117.789199999999990,8.300000000000001,1.3704700,101.6660004,-31.7978992,53.8745003,10205.7998047,161.4450073,27.3773994,1126,2,-1043477.754590000000000,426655.569089000000000
200,Tanggu,39.021099999999997,117.646900000000000,7.800000000000000,1.1124099,112.9260025,-29.7849007,51.7263985,10203.0000000,146.1600037,28.0506001,1446,16,-1058870.203950000000000,403114.119592999980000
201,Xianshuigu,38.984999999999999,117.382800000000000,8.600000000000000,1.0961300,118.9749985,-22.6243000,52.1052017,10201.2998047,140.7299957,29.6021004,1128,5,-1081696.683530000000000,402040.575913999990000
202,Yangcun,39.363900000000001,117.060300000000000,11.199999999999999,1.3053000,118.3499985,-27.8486004,50.9626007,10201.7001953,141.2109985,29.0030003,1742,5,-1102920.337110000000000,447332.044037999990000
203,Yangliuqing,39.137500000000003,116.999700000000000,13.800000000000001,1.5974100,119.8679962,-20.2007999,52.5018997,10201.0996094,140.0670013,29.9183998,1713,7,-1111579.857730000000000,423126.473011000020000
204,Deqing,30.544899999999998,119.959900000000000,27.699999999999999,1.4221801,162.5720062,48.8300018,60.1170998,10212.5996094,135.7960052,13.1398001,2091,11,-956525.377569000000000,-556246.509290999970000
205,Fuyang,30.053300000000000,119.951899999999990,15.900000000000000,1.5536300,165.9400024,54.6311989,60.8433990,10213.7998047,145.2010040,12.7746000,2539,22,-962091.213066000030000,-610309.570167000060000
206,Hangzhou,30.293600000000001,120.161400000000000,19.500000000000000,1.4593600,168.2389984,58.6847000,61.3689003,10212.2998047,140.6750031,10.5581999,1993,14,-939936.843270999960000,-585891.292210999990000
207,Huzhou,30.870300000000000,120.093300000000000,42.100000000000001,1.5844700,155.8339996,40.7295990,59.6389999,10211.4003906,112.8410034,15.6691999,2007,11,-940765.358088999990000,-521682.098470000030000
208,Jiaxing,30.752199999999998,120.750000000000000,45.600000000000001,0.9967780,156.8880005,44.6969986,60.4622993,10215.2001953,144.9499969,17.8125992,2544,8,-880046.887801000030000,-540838.133034999950000
209,Lianghu,29.991499999999998,120.898400000000000,27.000000000000000,0.6453030,167.8670044,56.2430000,60.7843018,10218.4003906,162.8049927,17.7264996,5087,19,-872812.846380000000000,-626024.240901999990000
210,Linping,30.422499999999999,120.297200000000000,25.100000000000001,1.3643100,168.1340027,58.5121994,61.3483009,10212.2998047,140.4380035,10.5684996,2255,18,-925867.428333000050000,-572989.826724000040000
211,Shangyu,30.015599999999999,120.871100000000000,27.399999999999999,1.6292700,167.5610046,56.4425011,60.9207993,10217.5996094,159.5480042,16.8351994,2819,13,-875196.071925999950000,-623124.405406999980000
212,Shaoxing,30.002400000000002,120.578599999999990,25.300000000000001,0.5062640,168.6690063,58.5867004,61.2271004,10213.5996094,145.9010010,11.9807997,1817,20,-903109.256917000050000,-621910.368252999960000
213,Xiaoshan,30.167500000000000,120.258799999999990,19.000000000000000,1.3420500,168.8170013,60.2602997,61.6582985,10212.0996094,140.3509979,10.1859999,1805,13,-931916.377977999970000,-600716.017918000000000
214,Xiashi,30.536300000000001,120.686400000000010,35.799999999999997,1.0052700,164.8070068,54.3166008,61.0554008,10213.5000000,142.8379974,12.9663000,2667,8,-888024.833409999960000,-564068.160079000050000
215,Yuyao,30.050000000000001,121.149400000000000,27.800000000000001,1.9187700,159.5220032,57.8740005,63.5032005,10220.5000000,160.0910034,21.0014992,1955,41,-848436.589278999950000,-621794.540111999960000
216,Zhicheng,31.005400000000002,119.904900000000000,42.299999999999997,0.9805050,152.8390045,35.9966011,59.1158981,10208.7998047,73.2126999,15.9165001,1739,13,-957118.869679000000000,-504953.891230000010000
217,Zhoushan,29.988700000000001,122.204899999999990,18.600000000000001,1.3999600,125.0479965,92.3893967,86.4270020,10231.0000000,110.3970032,20.1795006,2712,2,-748384.488952000040000,-637197.884589000020000
218,Busan,35.102800000000002,129.040300000000000,27.399999999999999,0.9014770,86.9987030,6.9993901,69.1809006,10194.0000000,285.0020142,48.9966011,-565,0,-87296.467489000002000,-99325.362726599997000
219,Asan,36.783600000000000,127.004200000000000,21.199999999999999,1.3420200,48.2472000,10.1316004,83.7722015,10208.5996094,300.4169922,19.5035000,2159,25,-266660.285608000010000,91223.949603800007000
220,Cheonan,36.806500000000000,127.152199999999990,25.100000000000001,1.6467299,53.3344994,-7.1351399,75.4459991,10207.5000000,311.4750061,19.7731991,2291,45,-253421.963381999990000,93373.957664999994000
221,Gongju,36.455599999999997,127.124700000000000,18.500000000000000,1.6909300,54.5462990,-1.6570700,76.9886017,10207.0000000,246.7769928,13.7444000,2802,23,-257034.861233000000000,54449.069834599999000
222,Hongsung,36.600900000000003,126.665000000000010,28.000000000000000,0.9869890,42.7177010,7.1908898,84.7534027,10208.7001953,257.4819946,4.8391199,2216,32,-297526.698693000010000,71903.607357000001000
223,Seosan,36.781700000000001,126.452200000000000,21.600000000000001,1.0531300,40.0260010,7.9762201,86.1306000,10212.0000000,359.5109863,0.0513468,2076,35,-315744.475276999990000,92661.878106400007000
224,Taisen-ri,36.349299999999999,126.597700000000000,24.199999999999999,1.6718500,37.1186981,7.1864700,86.9731979,10202.0996094,1.8347600,0.0784436,2102,10,-304510.735275999990000,44154.040698999997000
225,Daegu,35.870300000000000,128.591100000000010,28.600000000000001,1.3135200,92.9561996,-28.8278999,56.8263016,10189.0000000,269.9790039,14.9949999,1833,45,-126931.739931000000000,-13503.903529200001000
226,Hwawon,35.801699999999997,128.500800000000000,27.199999999999999,1.4742399,88.6580963,-21.8586006,59.9000015,10190.0996094,267.2460022,14.5642004,2420,36,-135182.154841000010000,-21009.217218700000000
227,Daejeon,36.321399999999997,127.419700000000010,17.899999999999999,0.5792720,55.0005989,-4.0096202,75.9794998,10208.0000000,233.0119934,14.9919996,2325,71,-231080.980978000010000,38795.065071199999000
228,Chuncheon,37.874699999999997,127.734200000000000,26.500000000000000,1.4687001,55.1983986,-13.8464003,72.4551010,10187.4003906,179.5410004,20.7661991,1672,96,-198812.868504000010000,210720.627077999990000
229,Hongch'on,37.691800000000001,127.885700000000000,41.000000000000000,1.3800300,55.1208000,-17.5657005,71.2110977,10195.2998047,238.1410065,17.7744007,2886,137,-185985.413009000010000,190100.247605999990000
230,Kang-neung,37.755600000000001,128.896099999999990,35.500000000000000,1.4514000,69.4471970,-21.9029007,65.3340988,10185.0996094,200.5679932,31.2605991,2078,15,-97037.505140800000000,195723.145717000010000
231,Kosong,38.378799999999998,128.467600000000000,25.500000000000000,1.5676900,63.4031982,-17.7835007,68.4906998,10178.0000000,285.7550049,13.6473999,2706,21,-133554.189936000010000,265471.339570000010000
232,Sokcho,38.207000000000001,128.591800000000010,29.600000000000001,1.4797300,63.9118004,-19.8497009,67.6629028,10177.0996094,289.6889954,10.1555996,1896,21,-123022.893968000000000,246223.120739000010000
233,Tonghae,37.543900000000001,129.106900000000000,35.200000000000003,1.5919800,60.8109016,-19.8600998,68.6252975,10185.0996094,269.5289917,15.2544003,2980,20,-78733.079214800004000,172005.319962999990000
234,Wonju,37.351399999999998,127.945300000000000,28.199999999999999,1.3410100,65.2742996,-33.3044014,63.0558014,10198.2001953,331.9800110,7.4332900,2063,135,-181571.455992000000000,152161.355573999990000
235,Gwangju,35.154699999999998,126.915600000000000,21.199999999999999,1.1041300,66.9817963,7.0104299,75.7617035,10213.0000000,250.9290009,26.9810009,1824,49,-280262.903066000030000,-89549.900435100004000
236,Ansan-si,37.323599999999999,126.821900000000000,20.100000000000001,1.8040600,50.8982010,7.4171000,81.7062988,10208.0996094,267.0889893,24.9778004,2043,15,-280865.129556000000000,151737.038673000000000
237,Anseong,37.010800000000003,127.270300000000010,24.199999999999999,1.5719500,49.2354012,5.1450901,81.4596024,10208.5000000,298.8460083,21.7758999,2205,36,-242270.840883000000000,115777.321888000010000
238,Anyang-si,37.392499999999998,126.926900000000000,21.699999999999999,1.5536400,51.0787010,4.5714998,80.5541000,10207.9003906,271.2269897,24.4211006,1881,53,-271345.576339000020000,159094.363241999990000
239,Bucheon-si,37.498899999999999,126.783100000000000,22.399999999999999,1.4409300,50.2089996,4.1863999,80.7312012,10204.2998047,251.5800018,22.3621998,2141,16,-283625.994746999990000,171324.140626999990000
240,Gapyeong,37.831000000000003,127.510600000000000,18.600000000000001,1.9161000,51.6707993,-11.9761000,74.2944031,10194.0000000,201.5220032,20.0841007,3625,69,-218550.388928000000000,206344.381813000010000
241,Goyang-si,37.656399999999998,126.834999999999990,23.199999999999999,1.3815399,47.3465996,-6.5097299,77.7754974,10204.5000000,274.8080139,17.5888996,1887,18,-278465.155044000010000,188670.467085000010000
242,Guri-si,37.598599999999998,127.139399999999990,23.899999999999999,1.7046900,49.3111000,-8.5787497,76.3237000,10204.0000000,275.3500061,18.3269005,2021,33,-251902.488790000000000,181421.377431000000000
243,Gwangju,37.409999999999997,127.257200000000000,19.699999999999999,1.8198100,50.6753998,-11.5844002,74.7738037,10206.4003906,271.8039856,17.9834995,1748,48,-242148.139018999990000,160168.721825999990000
244,Hanam,37.539999999999999,127.205600000000000,20.899999999999999,1.0908800,49.4113998,-8.3976898,76.3538971,10204.5996094,271.2260132,18.4123001,1966,33,-246271.320012999990000,174741.798879000010000
245,Hwado,37.652500000000003,127.307500000000000,17.899999999999999,1.2639800,47.7808990,-9.8633003,76.3967972,10203.7001953,253.9980011,16.9577999,1937,84,-236939.081940000000000,186988.050317999990000
246,Hwaseong-si,37.206800000000001,126.816900000000000,22.899999999999999,1.5746800,50.4534988,9.4837999,82.6718979,10209.0996094,278.9330139,25.8328991,2338,22,-281743.196016000000000,138774.827418000000000
247,Icheon-si,37.279200000000003,127.442500000000000,20.399999999999999,1.6318200,51.9963989,-45.2248993,63.2738991,10207.0000000,270.0260010,10.0454998,2159,70,-226193.852049999990000,145189.539202000010000
248,Kwangmyong,37.477200000000003,126.866400000000000,25.100000000000001,1.1756200,50.3913002,-2.9103899,78.0092010,10204.2001953,272.6690063,20.4316006,1928,27,-276369.335280000000000,168674.193911000010000
249,Namyangju,37.636699999999998,127.214200000000010,19.899999999999999,1.3652900,47.8688011,-8.7532797,76.7685013,10204.5000000,265.2470093,17.3595009,3073,61,-245195.237029000010000,185463.437173999990000
250,Osan,37.152200000000001,127.070600000000000,23.100000000000001,1.6925000,49.8829994,10.5515003,83.3051987,10209.9003906,305.8510132,29.9426003,1840,22,-259495.561735000000000,132003.901561000010000
251,Pubal,37.291699999999999,127.507800000000000,21.500000000000000,1.4549900,52.0014992,-45.2629013,63.2607002,10207.0000000,270.0209961,10.0379000,1910,58,-220385.580827000000000,146428.995755999990000
252,Seongnam-si,37.438600000000001,127.137800000000000,18.500000000000000,1.6215400,50.3707008,-4.0203800,77.6082993,10206.0996094,274.3460083,20.8337002,1906,77,-252584.283574000000000,163649.398670000000000
253,Suwon-si,37.291100000000000,127.008900000000000,21.199999999999999,1.3611701,51.9630013,10.6561003,82.5531006,10210.0000000,270.2359924,26.9510994,2011,58,-264468.745027000030000,147603.102553000000000
254,Uijeongbu-si,37.741500000000002,127.047400000000000,18.199999999999999,1.7522800,43.2657013,-9.0649204,78.2988968,10207.0000000,262.4909973,14.3535004,2095,49,-259496.727301000010000,197537.588737999990000
255,Wabu,37.589700000000001,127.220299999999990,21.000000000000000,1.6486000,48.5849991,-8.7735205,76.5084991,10204.4003906,267.4379883,17.7758007,2055,34,-244813.438930000000000,180226.482698999990000
256,Yangju,37.833100000000002,127.061700000000000,16.800000000000001,1.8041300,40.8897018,-11.1330996,78.3900986,10209.7001953,253.3910065,12.1134005,2121,75,-257921.141402000010000,207674.788342999990000
257,Yangp'yong,37.489699999999999,127.490600000000000,20.899999999999999,1.9416100,51.8611984,-20.9540997,71.1278000,10204.0996094,264.6919861,14.2760000,1878,39,-221320.277787000000000,168469.498725999990000
258,Andong,36.566400000000002,128.722700000000000,30.199999999999999,0.8797310,37.0088997,-13.9826002,78.7376022,10198.0000000,311.9620056,2.0049801,1806,97,-114058.170284000010000,63723.997986499999000
259,Eisen,35.967500000000001,128.930800000000000,36.799999999999997,1.5043900,79.9641037,-14.2229996,64.6050034,10192.2001953,267.3479919,13.2800999,2195,84,-96213.026804599998000,-3085.976170550000000
260,Gimcheon,36.121800000000000,128.119800000000000,33.000000000000000,0.9260050,45.8997002,-17.1189003,74.4527969,10200.5996094,151.2689972,7.6123099,2376,80,-168839.902938000010000,15171.352394899999000
261,Gumi,36.113599999999998,128.336000000000010,29.899999999999999,0.9576640,55.0042992,14.8322001,83.0170975,10196.0000000,281.9030151,8.0032396,3163,62,-149446.798960999990000,13906.778870700000000
262,Gyeongsan-si,35.823300000000003,128.737799999999990,28.000000000000000,0.8434000,90.7311020,-24.1042004,58.7094002,10189.5996094,269.5570068,14.8151999,2082,58,-113784.802793000000000,-18910.437037100000000
263,Kyonju,35.842799999999997,129.211700000000010,31.199999999999999,1.5825100,81.7092972,-11.7889004,64.8410034,10191.5996094,287.7730103,12.1774998,2404,43,-71049.709449300004000,-17191.666829000002000
264,Mungyeong,36.594600000000000,128.199500000000000,38.700000000000003,1.5600200,52.2887001,-13.0537004,73.7059021,10198.2998047,239.4949951,10.0038004,2114,78,-160706.141146999990000,67596.384858999998000
265,Pohang,36.029200000000003,129.364800000000000,23.699999999999999,1.1244500,81.9977036,-17.9808006,62.8792000,10191.0000000,250.0119934,10.0011997,2289,5,-57116.549027900001000,3432.830583510000000
266,Sangju,36.415300000000002,128.160599999999990,40.399999999999999,1.7568700,53.9962997,-15.0039997,72.4560013,10197.0000000,249.9579926,9.9993296,1912,60,-164557.715472000010000,47729.314386300000000
267,Changnyeong,35.541400000000003,128.495100000000010,21.699999999999999,1.0456500,71.2893982,-2.7104299,70.9651031,10195.2998047,278.0920105,12.5813999,3159,66,-136139.248079999990000,-49939.991313300001000
268,Changwon,35.228099999999998,128.681099999999990,20.100000000000001,1.0521801,63.7412987,1.7323700,75.0045013,10196.0996094,352.3099976,2.8935699,2478,29,-119780.431493000000000,-85014.177495700002000
269,Chinju,35.192799999999998,128.084700000000000,17.500000000000000,1.3544400,76.9070969,23.4323997,78.2015991,10197.0000000,358.9979858,0.1828740,2361,34,-174003.147476000010000,-88039.538704100007000
270,Kimhae,35.234200000000001,128.881100000000000,24.800000000000001,1.1218700,80.1959000,5.1968398,70.7405014,10195.0000000,300.1300049,33.9143982,2175,11,-101611.619888000000000,-84563.156195899996000
271,Kyosai,34.850299999999997,128.588600000000010,19.000000000000000,1.2056100,89.3964996,35.3946991,78.1302032,10201.4003906,240.5870056,37.7243996,3257,10,-128773.543899000000000,-126893.622431000000000
272,Miryang,35.493299999999998,128.748899999999990,22.699999999999999,1.8960400,74.4934998,-2.2667401,70.0858002,10195.0000000,295.1350098,15.1848001,2758,14,-113251.348019000000000,-55612.157902500003000
273,Naeso,35.249699999999997,128.520000000000010,23.199999999999999,0.9980670,62.8699989,1.5174100,75.2274017,10196.0996094,355.2760010,1.2576300,2951,63,-134372.412998999990000,-82402.921082500005000
274,Sinhyeon,34.882500000000000,128.626700000000000,19.199999999999999,0.9355360,86.6701965,29.6940994,77.0330963,10200.7998047,252.3480072,34.3940010,4526,17,-125248.992201000000000,-123364.021385000000000
275,Ungsang,35.406100000000002,129.168600000000000,25.800000000000001,1.1484700,83.7418976,-2.9310901,66.9982986,10192.4003906,324.3739929,21.1324005,2726,101,-75344.444378000000000,-65712.919000700000000
276,Yangsan,35.341999999999999,129.033600000000010,25.500000000000000,1.3215600,82.2399979,2.5672700,69.2266998,10194.4003906,298.3030090,32.9626007,2503,6,-87647.138681299999000,-72726.574276300002000
277,Incheon,37.456499999999998,126.705200000000000,20.699999999999999,1.9019800,50.8739014,13.1419001,83.9397964,10204.0996094,232.1950073,24.7371006,1477,44,-290651.622404999970000,166843.466432999990000
278,Seogwipo,33.253300000000003,126.561800000000010,12.800000000000001,1.2138600,99.0035019,53.9450989,81.5065994,10216.0000000,269.9930115,21.0053997,4168,71,-319501.264517000000000,-299650.743921999990000
279,Gunsan,35.978600000000000,126.711400000000000,25.000000000000000,1.3937800,55.2158012,30.7054996,89.3071976,10211.7998047,217.1490021,9.5019999,2391,12,-295741.066607000020000,2610.631246439999800
280,Iksan,35.943899999999999,126.954400000000010,24.399999999999999,0.7180920,53.5707016,24.2336006,87.3147964,10210.9003906,223.6799927,12.4287004,1959,19,-274030.066256000020000,-1955.799107670000000
281,Jeonju,35.821899999999999,127.148900000000000,21.100000000000001,1.1724100,52.0070992,24.7970009,88.1748962,10211.0000000,254.7489929,17.9612007,1998,44,-256940.211606000000000,-16044.434786200000000
282,Koch'ang,35.433300000000003,126.700000000000000,23.800000000000001,0.6696680,40.4281006,12.1048002,87.6522980,10208.0000000,129.2359924,5.8519101,2704,43,-298802.089249000010000,-57950.817134600002000
283,Nangen,35.409999999999997,127.385800000000000,11.400000000000000,1.1886100,59.9995995,-26.9363995,66.5934982,10208.0000000,225.0039978,4.0031300,2181,102,-236822.824916000010000,-62424.450899600000000
284,Wanju,35.845100000000002,127.147499999999990,21.100000000000001,1.3448600,52.0056992,24.8362007,88.1915970,10211.0000000,254.8079987,17.9712009,2030,53,-256991.121026999990000,-13462.258948100000000
285,Hwasun,35.061300000000003,126.987500000000000,18.600000000000001,1.2650000,65.5177994,7.0564599,76.2857971,10211.5996094,248.4669952,25.1466999,2506,74,-274049.715183000020000,-100133.201472999990000
286,Kwangyang,34.975299999999997,127.589200000000010,17.500000000000000,1.4254400,68.1849976,8.5028296,75.8774033,10202.5000000,297.0379944,22.9101009,2970,17,-219579.704911999990000,-111214.053707000000000
287,Muan,34.990099999999998,126.479000000000000,18.300000000000001,0.4805640,59.1236000,9.3282099,79.3904037,10210.7998047,139.1179962,9.9137096,3312,20,-320533.414047000000000,-106493.572809000000000
288,Suncheon,34.948099999999997,127.489500000000010,16.699999999999999,1.0541900,65.8725967,3.7132699,74.9745026,10202.2998047,311.1090088,24.3726006,3470,16,-228730.762893000010000,-114007.705204000000000
289,Yeosu,34.762799999999999,127.665300000000000,16.600000000000001,1.2564700,79.7044983,30.3759995,79.7507019,10203.0000000,262.5799866,28.7707996,5272,14,-213202.565001000010000,-134999.326964000010000
290,Cheongju-si,36.637200000000000,127.489700000000000,23.100000000000001,1.5573900,64.8886032,-10.0641003,70.5675964,10206.0000000,289.9580078,10.0802002,1905,52,-223901.783912999990000,73731.954280899998000
291,Chinch'on,36.856699999999996,127.443299999999990,22.800000000000001,1.6476300,56.1534996,-13.1729002,72.3695984,10206.7998047,302.8909912,17.6658993,2041,71,-227386.274280999990000,98234.971409100006000
292,Okcheon,36.301200000000001,127.568000000000000,20.699999999999999,1.6244500,54.3244019,-6.1786299,75.4380035,10207.2001953,226.2310028,14.1513996,2462,96,-217864.506031000000000,36208.310117699999000
293,Seoul,37.566000000000003,126.978399999999990,25.600000000000001,0.8822340,50.9962006,-10.9644003,74.8833008,10203.0000000,283.9819946,18.9995995,1502,39,-266183.778116000000000,178227.546347000000000
294,Ulsan,35.537199999999999,129.316700000000000,25.000000000000000,1.8366400,86.9372025,-9.8158102,63.9216995,10190.0000000,358.4360046,13.0499001,1541,11,-61822.919240600000000,-51241.235208799997000