FID,city,lat,lon,pm2_5,AOD,AirTemp,DPTemp,RH,SeaLevelPr,WindDir,WindSpeed,NDVI,DEM,POINT_X,POINT_Y
0,Bengbu,32.940800000000003,117.360800000000000,17.500000000000000,1.1543200,203.5549927,-7.7623901,38.6924019,10183.2998047,252.2899933,27.3684998,1581,29,-1169870.111430000000000,-263835.768168999990000
1,Chaohu,31.600000000000001,117.866699999999990,24.899999999999999,0.9330440,207.4040070,-7.0986300,38.1828995,10187.9003906,295.4979858,18.9136009,2117,12,-1140491.590980000100000,-417506.261770999990000
2,Chizhou,30.661300000000001,117.477800000000000,34.100000000000001,0.4812220,200.1020050,-7.5653901,39.3036995,10198.2001953,227.2270050,41.6787987,2512,24,-1188171.732980000100000,-516125.522792999980000
3,Chuzhou,32.321899999999999,118.297800000000000,22.199999999999999,1.0739599,202.6029968,-7.8464398,38.8345985,10191.5996094,250.1560059,25.4076004,2463,22,-1091927.444010000000000,-342913.159963999990000
4,Datong,32.620800000000003,117.063199999999990,19.500000000000000,0.2552440,207.5610046,-5.8100500,38.3904991,10183.9003906,263.0140076,23.0233994,4064,38,-1201264.272750000000000,-295459.811917999990000
5,Gushu,31.560500000000001,118.481500000000000,24.500000000000000,0.4824820,207.2259979,-6.7618599,38.2731018,10195.5000000,267.8250122,28.5904007,2266,13,-1083963.510000000000000,-428871.509500999990000
6,Hefei,31.863900000000001,117.280800000000000,19.600000000000001,1.2890500,211.9850006,-19.8213005,35.2514000,10181.0000000,339.6210022,10.0405998,1942,22,-1191280.157150000100000,-381449.387945000020000
7,Huaibei,33.974400000000003,116.791700000000010,21.300000000000001,0.4531950,219.5619965,-26.3008995,33.0976982,10173.0996094,265.8609924,38.2369003,1781,51,-1207152.385449999900000,-143029.055618999990000
8,Huainan,32.626399999999997,116.996900000000000,20.399999999999999,0.9827610,208.0890045,-4.9039998,38.4687996,10183.7998047,261.1719971,23.4859009,2406,49,-1207239.336679999900000,-294024.184438999980000
9,Chengguanzhen,32.958900000000000,117.165700000000000,21.600000000000001,1.3539400,205.6060028,-6.4797802,38.5891991,10182.7001953,253.0650024,27.7947006,2059,20,-1187384.505679999900000,-259482.908663000010000
10,Huangshan,29.711400000000001,118.312500000000000,26.199999999999999,1.4653701,183.5829926,31.2399006,50.6054993,10208.7001953,265.1489868,17.0205994,1786,134,-1120870.655120000000000,-630393.058920999990000
11,Lucheng,31.233599999999999,117.280600000000010,29.399999999999999,0.4928780,207.8150024,-11.4132996,37.3448982,10188.4003906,264.0010071,22.3484993,2541,13,-1199372.180360000100000,-450789.000339000020000
12,Mingguang,32.780200000000001,117.963800000000010,19.500000000000000,1.1678600,198.7530060,-5.9933400,39.8260002,10186.2998047,245.6549988,26.9778996,3105,15,-1116922.092450000100000,-288607.707440000030000
13,Suixi,33.890700000000002,116.774700000000000,22.000000000000000,0.8261520,218.1289978,-23.3918991,33.7649002,10173.7001953,263.6889954,37.4950981,2383,32,-1209866.933509999900000,-152037.907317000000000
14,Suzhou,33.636099999999999,116.978900000000000,19.199999999999999,1.7289000,213.9730072,-18.7914009,35.1268997,10175.7001953,259.4349976,35.5303001,1797,32,-1195056.577540000000000,-182602.631082000010000
15,Tangzhai,34.432800000000000,116.591100000000000,17.300000000000001,0.4578520,218.6139984,-32.5984993,32.2440987,10172.7998047,265.8949890,37.0304985,2359,46,-1218508.292309999900000,-90041.341666299995000
16,Wuhu,31.337299999999999,118.373500000000010,26.199999999999999,0.4762290,205.0370026,17.6833992,43.3371010,10195.0996094,307.6289978,29.2940006,2243,19,-1096597.235470000000000,-452248.043905999980000
17,Wusong,30.949999999999999,117.783300000000000,38.899999999999999,0.7593890,201.5279999,3.4418001,41.1483002,10195.2001953,262.0920105,29.2588005,1940,10,-1156151.801010000100000,-488054.893822000010000
18,Xuanzhou,30.952500000000001,118.755300000000010,31.100000000000001,0.1327580,204.6580048,22.7504997,44.4459991,10195.4003906,308.3380127,29.0883007,2539,27,-1065373.004149999900000,-498856.030266000020000
19,Changping,40.216099999999997,116.234700000000000,10.900000000000000,0.2037520,179.9250031,-98.7882996,27.5489006,10172.7998047,347.8410034,42.3148994,1710,66,-1157544.126620000000000,550489.810261999960000
20,Daxing,39.740299999999998,116.326899999999990,9.800000000000001,0.7694710,179.2180023,-93.7278976,28.3344002,10172.9003906,316.0530090,39.1161995,1845,43,-1157973.885300000000000,497188.413638999980000
21,Fangshan,39.686999999999998,115.996600000000000,10.300000000000001,0.3024250,168.0339966,-90.7575989,30.1791000,10177.9003906,286.0610046,40.2485008,1887,44,-1186310.830899999900000,495310.842985000000000
22,Liangxiang,39.735999999999997,116.132900000000010,10.300000000000001,0.3584770,173.2369995,-92.4626999,29.2588005,10175.5000000,303.8770142,40.1151009,1557,47,-1174157.238010000000000,499037.191068999990000
23,Mentougou,39.938200000000002,116.093100000000010,10.699999999999999,0.2554830,174.4660034,-96.3104019,28.5548000,10175.0996094,330.6610107,42.5470009,1723,112,-1173999.292440000000000,521701.226581000020000
24,Shunyi,40.121699999999997,116.647800000000000,7.600000000000000,0.6777480,188.8699951,-100.8460007,26.2388000,10169.0996094,359.7049866,40.0127983,1882,44,-1125010.669530000100000,535295.539415000010000
25,Tongzhou,39.904000000000003,116.661800000000000,8.100000000000000,0.6393190,187.3750000,-99.2120972,26.6229992,10169.5996094,353.4440002,39.8783989,1494,29,-1127442.935570000000000,511234.221848000020000
26,Botou,38.066699999999997,116.566599999999990,9.199999999999999,0.5449810,197.9969940,-66.9742966,29.8094997,10173.0000000,179.9920044,10.0033998,1170,18,-1165198.846739999900000,310403.507886999990000
27,Cangzhou,38.316699999999997,116.866699999999990,8.000000000000000,0.5214200,192.4089966,-63.4009018,31.0678997,10173.5996094,165.7180023,14.1209002,1188,11,-1135726.174420000100000,334368.377554000010000
28,Changli,39.704200000000000,119.150600000000000,8.100000000000000,0.2793690,119.3750000,-78.1307983,39.7639999,10179.0000000,177.1479950,31.8068008,1069,18,-922563.686736000000000,463076.551549999970000
29,Chengde,40.951900000000002,117.958800000000000,7.600000000000000,0.1897770,119.9929962,-116.9150009,32.7198982,10195.0000000,319.9769897,50.0004997,1624,317,-1003756.353320000000000,612139.133171000050000
30,Fengrun,39.833300000000001,118.116699999999990,11.600000000000000,0.3669800,167.9850006,-76.4020004,32.3949013,10168.7001953,97.2578964,20.9139996,1705,28,-1007380.875410000000000,487529.738544000020000
31,Langfang,39.509700000000002,116.694700000000000,10.100000000000000,0.3185890,179.0919952,-86.7070999,29.3495998,10172.5996094,175.8820038,26.4584999,1591,17,-1131158.165850000000000,467545.871127000020000
32,Linxi,39.711799999999997,118.449500000000000,12.400000000000000,0.3163900,155.5679932,-77.0815964,34.0802994,10171.5000000,119.2470016,23.8864002,1325,45,-981287.856008999980000,470760.535632000010000
33,Qinhuangdao,39.931699999999999,119.588300000000000,6.300000000000000,0.8405920,123.5419998,-85.3495026,37.6744003,10180.5000000,245.1880035,39.5475006,1092,5,-882836.518334000020000,484099.270024000030000
34,Renqiu,38.698900000000002,116.093600000000000,10.500000000000000,0.5043380,193.7570038,-69.1066971,30.0412006,10170.2998047,152.2149963,26.1623993,1236,8,-1194941.899690000100000,385636.067327000030000
35,Shanhaiguan,40.002499999999998,119.748900000000010,6.400000000000000,0.5528010,121.4749985,-83.9736023,38.2798996,10181.0000000,254.7960052,40.7002983,1385,13,-868465.676281000020000,490461.744507000020000
36,Songling,40.292999999999999,118.269099999999990,9.100000000000000,0.4598280,137.0610046,-100.5380020,32.9216995,10181.2998047,262.1530151,41.7272987,2091,133,-987954.985893000030000,536546.011934999960000
37,Tangjiazhuang,39.743299999999998,118.450999999999990,12.100000000000000,0.2840630,155.6759949,-77.6417999,33.9706001,10171.5996094,121.2929993,24.1257000,1475,68,-980713.979442000040000,474213.854966000010000
38,Tangshan,39.633299999999998,118.183300000000000,15.000000000000000,0.4605760,169.8090057,-75.0878983,32.3474007,10168.0996094,90.4814987,20.0618000,1899,37,-1004726.436020000000000,464829.737559999980000
39,Zhaogezhuang,39.765400000000000,118.411900000000000,12.000000000000000,0.5166770,159.3029938,-77.6619034,33.4342003,10170.7998047,115.7220001,23.3584003,1290,62,-983673.281608000050000,477041.080980000030000
40,Baoying,33.229199999999999,119.309200000000000,21.800000000000001,0.9567130,190.0989990,13.0431995,45.2043991,10184.5996094,210.0169983,34.6251984,1999,6,-988573.759586000000000,-253595.110187999990000
41,City,31.646100000000001,120.742200000000000,54.399999999999999,0.5547820,186.7230072,6.1934900,44.4142990,10205.0996094,192.5720062,27.1151009,1940,10,-872499.590631000000000,-442119.325482000010000
42,Changzhou,31.773599999999998,119.953999999999990,29.300000000000001,0.5278740,203.0140076,13.4502001,42.8553009,10198.5996094,160.6889954,17.0414009,1558,6,-944751.048059999940000,-420697.053299000020000
43,Dazhong,33.199700000000000,120.457800000000010,25.300000000000001,0.4252040,189.0370026,23.1312008,47.6027985,10192.7998047,219.9819946,21.2115002,1846,5,-883704.921225999950000,-267886.083679999980000
44,Dongkan,33.999699999999997,119.830800000000000,24.300000000000001,0.7448940,188.1820068,-8.6858301,41.1444016,10180.7001953,227.4140015,30.7973003,2147,5,-932488.776039000020000,-173598.682414999990000
45,Dongtai,32.852300000000000,120.309500000000000,24.399999999999999,0.4593770,190.9989929,32.9716988,49.4132004,10193.0000000,219.9989929,20.0009003,2065,7,-900852.514004000000000,-304929.854866000010000
46,Fengxian,34.703899999999997,116.587200000000000,15.699999999999999,0.3835800,215.9920044,-42.1189003,31.1462994,10172.7998047,266.3200073,34.3367004,2390,38,-1214888.887470000000000,-60132.761206800002000
47,Gaogou,34.017499999999998,119.188599999999990,22.500000000000000,0.7881930,192.3880005,4.2295899,42.9486008,10180.2998047,213.2400055,36.0587997,2953,6,-990489.728597000010000,-165297.027111000000000
48,Gaoyou,32.789299999999997,119.441800000000000,18.100000000000001,0.5519030,190.8860016,10.0642004,44.4272003,10191.2998047,218.6670074,25.5776997,1918,5,-981334.757631000010000,-303511.969546000010000
49,Guiren,33.669699999999999,118.188900000000000,26.100000000000001,0.6919350,194.9340057,-2.8748200,41.0834007,10180.7001953,222.7779999,35.6313019,3641,22,-1085240.969070000100000,-193051.539277000000000
50,Haizhou,34.581699999999998,119.128900000000000,20.399999999999999,0.2975850,211.3520050,-33.2019005,33.1567993,10167.5996094,250.2519989,21.0912991,1658,10,-989226.309308000030000,-102356.431718000010000
51,Hede,33.772199999999998,120.261799999999990,26.300000000000001,0.3188960,182.1399994,-1.4432499,43.6988983,10186.5000000,224.9960022,27.7658005,1910,2,-895742.599091000040000,-202794.145450999990000
52,Huai'an,33.588600000000000,119.019200000000000,26.899999999999999,0.9344630,190.9989929,28.4843998,48.3942986,10182.0000000,200.0890045,39.9702988,1675,14,-1010874.062350000000000,-210930.864777000010000
53,Huilong,31.811100000000000,121.655000000000000,49.000000000000000,0.7570480,177.7480011,8.1952200,46.6018982,10205.7998047,212.6439972,30.1014004,2101,7,-785715.497665000030000,-431654.741331000000000
54,Hutang,31.534300000000002,119.489999999999990,34.500000000000000,0.4475380,211.8650055,23.8162003,43.3181000,10199.0000000,111.8850021,10.2425003,5067,8,-990454.257109000000000,-442490.639929000000000
55,Jiangyan,32.506100000000004,120.142799999999990,23.899999999999999,0.6289090,190.3339996,24.8041000,47.7086983,10193.4003906,218.3979950,20.8255005,1897,9,-919755.568349999960000,-341624.896619000010000
56,Jiangyin,31.911000000000001,120.263000000000010,47.700000000000003,0.6024360,192.6049957,11.8597002,44.4738007,10199.0996094,190.0229950,21.9957008,1848,10,-914613.536207000030000,-408477.307786000020000
57,Jinsha,32.089799999999997,121.073500000000000,37.799999999999997,0.8096170,177.8229980,10.2458000,47.0372009,10204.4003906,212.7140045,29.1653004,2129,7,-837492.445526000000000,-396011.138564999970000
58,Juegang,32.317399999999999,121.185500000000000,34.399999999999999,0.5890830,176.4680023,11.7690001,47.6525993,10203.7998047,215.9479980,29.1354008,2313,8,-825001.420362000000000,-371809.867952000000000
59,Kunshan,31.377600000000001,120.954300000000000,63.100000000000001,0.1787050,190.2380066,-2.8229899,41.9291992,10208.4003906,184.8249969,28.9871998,1977,15,-855131.909891000020000,-473644.952591000010000
60,Licheng,31.428100000000001,119.483500000000010,35.600000000000001,0.2804270,212.0000000,24.9930992,43.5312996,10199.0000000,110.0049973,10.0005999,1949,10,-992185.425903000050000,-454135.302704999980000
61,Mudu,31.256000000000000,120.518600000000010,56.100000000000001,0.5601790,191.7160034,13.1239996,44.9089012,10204.0000000,182.5760040,22.9109001,1996,9,-897110.388310999960000,-483150.540847000030000
62,Nanjing,32.061700000000002,118.777800000000000,18.500000000000000,0.6636660,208.2940063,-21.5044994,35.5229988,10195.7001953,245.3020020,28.6595993,1240,23,-1050725.230460000000000,-376875.616416000000000
63,Nantong,32.030299999999997,120.874700000000000,28.899999999999999,0.7727870,180.9239960,9.5165596,46.2535019,10203.4003906,207.1280060,27.9179993,1968,6,-856544.748798000040000,-400858.268166000020000
64,Pizhou,34.311399999999999,117.950300000000000,22.899999999999999,0.5109300,208.5919952,-35.9818001,33.1036987,10174.0996094,262.2510071,32.9532013,1564,27,-1098516.240560000100000,-119579.262072000000000
65,Qinnan,33.253100000000003,119.913300000000010,25.300000000000001,0.3030650,188.7570038,16.6464996,46.2389984,10191.0000000,219.3150024,23.7794991,3168,2,-933053.626501000020000,-256909.325114000010000
66,Songling,31.193300000000001,120.717600000000000,56.600000000000001,0.4456020,189.5720062,9.8804703,44.6400986,10206.2001953,184.6569977,25.4568005,3142,5,-879031.180062000060000,-491882.505087000030000
67,Suicheng,33.896299999999997,117.933100000000000,26.500000000000000,0.6576910,203.9700012,-20.1422997,36.4188995,10177.0996094,246.9089966,34.4707985,1774,22,-1105471.079250000000000,-165178.560494000000000
68,Suzhou,31.304099999999998,120.595400000000000,55.600000000000001,0.3532230,190.3209991,10.9112997,44.7122993,10204.7998047,184.4600067,24.3523998,2034,9,-889455.618804999980000,-478546.377723000010000
69,Taixing,32.166699999999999,120.013600000000000,27.899999999999999,0.5764180,193.1750031,12.5591002,44.5108986,10196.2998047,201.9929962,21.8418999,1312,6,-935189.888976000020000,-377878.674659000010000
70,Taizhou,32.490699999999997,119.908100000000000,21.000000000000000,0.4835520,190.7140045,19.3432007,46.4334984,10193.5996094,216.8049927,21.5779991,1541,6,-941591.898074000030000,-341085.023818999990000
71,Tongshan,34.180500000000002,117.157100000000000,19.600000000000001,0.8082740,222.9060059,-31.0144997,31.9051991,10172.0000000,269.9349976,39.9542999,2127,37,-1171472.464830000000000,-124778.204092000000000
72,Wuxi,31.568899999999999,120.288600000000000,40.200000000000003,0.4961120,195.9730072,13.0418997,44.0800018,10200.7998047,174.7610016,20.3311005,1355,12,-915607.446173000030000,-446481.413044999990000
73,Xiannu,32.428100000000001,119.560500000000000,15.500000000000000,0.5267920,194.2850037,8.1526499,43.3933983,10194.0996094,214.7239990,23.5403004,2326,11,-974346.872458999980000,-344580.971773999980000
74,Xiaolingwei,32.032400000000003,118.854000000000000,20.399999999999999,0.2937380,208.7489929,-23.5153008,35.1157990,10195.9003906,245.3260040,28.8670998,2549,15,-1044015.396800000000000,-380925.170921000010000
75,Xinghua,32.939200000000000,119.834200000000000,21.300000000000001,0.7971990,190.1640015,23.0652008,47.3582993,10192.5000000,219.4700012,21.5160999,2011,7,-943657.734935999960000,-290830.892102000010000
76,Xinpu,34.599699999999999,119.159400000000010,20.399999999999999,0.6865360,211.3659973,-33.2183990,33.1521988,10167.5996094,250.2590027,21.0849991,1356,6,-986270.479433999980000,-100676.638277000010000
77,Yancheng,33.357500000000002,120.157300000000010,25.699999999999999,0.8621370,187.8130035,15.8132000,46.2462997,10191.4003906,220.1920013,23.1949005,2363,3,-909618.465486999950000,-247676.734147999990000
78,Yangzhou,32.397199999999998,119.435800000000000,14.300000000000001,0.7112100,196.4880066,4.4241199,42.2392006,10194.2998047,216.1419983,24.2019997,1778,15,-986191.701424999980000,-346737.831629999970000
79,Yicheng,31.360600000000002,119.820200000000000,43.200000000000003,0.3586580,209.7879944,20.5512009,43.0419006,10199.0000000,125.2070007,11.9418001,1171,6,-961450.839246000050000,-464953.056701000020000
80,Zhangjiagang,31.864999999999998,120.538900000000000,44.799999999999997,0.4047210,187.1589966,10.3566999,45.2061996,10201.5000000,196.7619934,24.9025002,1914,11,-889381.361042000000000,-416109.643221999980000
81,Zhenzhou,32.280299999999997,119.170000000000000,16.600000000000001,0.5274770,202.4859924,-4.9078398,39.3978004,10195.0996094,225.3800049,25.7124004,2180,10,-1012018.637060000000000,-356913.988107000010000
82,Zhongxing,33.703899999999997,118.679199999999990,24.699999999999999,0.1842940,191.1029968,24.3069000,47.4416008,10181.9003906,201.3619995,39.6414986,1721,17,-1040377.387380000000000,-194622.960055000000000
83,Baishan,41.938499999999998,126.419700000000010,9.000000000000000,0.7790510,40.9698982,-55.6882019,63.2848015,10171.5000000,215.9920044,24.5168991,1045,472,-295932.798491999970000,664553.523502000030000
84,Erdaojiang,41.776400000000002,126.031899999999990,12.800000000000001,1.5321500,49.4184990,-55.7705994,60.8433990,10167.7001953,188.1029968,23.6403999,1469,408,-328770.264269999990000,647881.764989000050000
85,Hepingjie,42.059699999999999,126.915800000000000,10.600000000000000,0.7943090,37.5763016,-58.0078011,63.5657997,10173.4003906,222.5299988,25.4771004,2149,729,-254484.873866999990000,676546.317679999980000
86,Linjiang,41.806899999999999,126.907799999999990,11.000000000000000,1.4126500,33.9873009,-65.7108994,62.2719994,10176.4003906,221.8059998,28.1935005,905,339,-256157.598520000000000,648625.214274000030000
87,Sanchazi,42.081699999999998,126.600300000000000,9.900000000000000,0.6346370,39.4697990,-56.8532982,63.3657990,10172.2001953,220.6950073,24.8146000,1802,557,-280391.213267999990000,679842.834743999990000
88,Anshan,41.123600000000003,122.989999999999990,23.500000000000000,1.7468400,66.3722992,-36.9275017,61.6589012,10172.5996094,269.8859863,36.3774986,1286,49,-585681.196650999950000,590017.027501999980000
89,Beipiao,41.791899999999998,120.779200000000000,9.400000000000000,0.3549460,103.0329971,-115.3249969,35.5731010,10182.5996094,348.6380005,56.2888985,1942,275,-761104.832023000000000,678977.937646999960000
90,Benxi,41.288600000000002,123.765000000000000,45.899999999999999,0.8052240,64.9997025,-32.0074997,63.5284004,10172.0000000,319.9129944,30.0105991,1566,199,-519889.600918999990000,603845.338653999960000
91,Chaoyang,41.570300000000003,120.458600000000000,12.400000000000000,0.0002299,111.9980011,-121.9800034,33.0549011,10183.0000000,359.9960022,50.0008011,694,163,-790042.911953000000000,657139.001026000010000
92,Dalianwan,39.028599999999997,121.694999999999990,23.100000000000001,0.7414520,94.9307022,-83.9605026,43.1022987,10180.0000000,21.9095993,20.1224995,1598,22,-714839.199274000010000,367096.904574999990000
93,Dandong,40.129199999999997,124.394700000000000,27.699999999999999,1.2160500,56.8806000,-20.4589996,69.6722031,10184.9003906,180.0050049,39.9944992,832,10,-475773.038566000000000,472416.429696000010000
94,Dashiqiao,40.637300000000003,122.502500000000000,15.500000000000000,0.5961810,58.3138008,-20.5958996,69.1712036,10186.2998047,287.4729919,30.5160007,1212,17,-630804.024713000050000,539350.024162000050000
95,Dongling,41.814399999999999,123.575800000000000,25.699999999999999,1.4609200,66.9660034,-17.9246998,67.3407974,10157.0996094,220.7790070,49.8146019,1595,52,-531261.530525999960000,662915.547192999980000
96,Fengcheng,40.453600000000002,124.071700000000010,29.000000000000000,1.1709200,58.4406013,-27.5181007,66.8843002,10178.2001953,191.5959930,35.7305984,1276,65,-500684.632076999990000,509933.576848000000000
97,Fushun,41.855800000000002,123.923300000000000,26.100000000000001,1.2500499,64.4655991,-28.6837997,64.7051010,10161.2998047,241.8789978,42.9628983,2037,87,-502310.259828999990000,665641.909191000040000
98,Gongchangling,41.116700000000002,123.450000000000000,34.200000000000003,0.9868260,65.1062012,-33.6422997,63.0018997,10171.0000000,296.3399963,32.5455017,3935,207,-547479.525231000040000,586581.222026000030000
99,Haicheng,40.851599999999998,122.747500000000000,17.899999999999999,1.1828500,62.9822998,-31.6991997,64.2111969,10181.7001953,276.2720032,32.9710999,931,33,-608339.637039999940000,561463.426371000010000
100,Heishan,41.689200000000000,122.112799999999990,9.699999999999999,0.9127120,78.9050980,-65.8155975,50.6437988,10173.7001953,297.6780090,48.0839005,902,26,-652825.486437999990000,657992.945625000050000
101,Huanren,41.264699999999998,125.366699999999990,22.800000000000001,1.3452300,58.3606987,-48.9040985,60.3713989,10167.2001953,183.7920074,26.1191998,2444,260,-386819.334180000010000,593753.923620000020000
102,Hushitai,41.932200000000002,123.511399999999990,20.800000000000001,0.8461980,66.8178024,-21.6763992,66.1931000,10157.7998047,224.3040009,49.0545006,2003,62,-535576.553793000060000,676264.726298999970000
103,Jinzhou,41.107799999999997,121.141700000000000,9.699999999999999,0.4211280,117.9810028,-80.9859009,39.4541016,10173.0000000,339.9790039,49.9972000,855,25,-739180.768047000050000,600835.298283000010000
104,Jiupu,41.066699999999997,122.950000000000000,22.899999999999999,0.9160690,66.1530991,-36.7933006,61.7603989,10174.2001953,269.5220032,35.7949982,1141,30,-589516.744739999990000,583974.845113000020000
105,Kuandian,40.728600000000000,124.784700000000000,28.699999999999999,0.9388340,57.0027008,-67.9479980,55.3806000,10172.0000000,199.9969940,39.9945984,1216,281,-438836.392662999980000,536921.396000999960000
106,Langtou,40.026100000000000,124.328599999999990,26.899999999999999,1.4499100,52.1447983,-8.6699800,75.3035965,10182.0996094,180.0039978,39.9962997,1641,13,-482094.692038999990000,461327.573110000000000
107,Lianshan,40.764299999999999,120.853300000000000,9.900000000000000,0.2175050,110.7919998,-77.4563980,41.4500008,10175.9003906,326.5559998,48.2450981,1218,17,-767022.832233999970000,565192.731040999990000
108,Liaoyang,41.271900000000002,123.173100000000010,27.399999999999999,1.8530700,66.0475998,-34.4197006,62.4982986,10168.7998047,274.1350098,37.1260986,942,30,-569165.709691000050000,605307.515121000000000
109,Liaozhong,41.506100000000004,122.724200000000000,16.199999999999999,1.1962700,69.3149033,-44.1175995,58.7681999,10169.0000000,266.4460144,42.4945984,1044,16,-604215.357652000040000,633858.327441000030000
110,Linghai,41.165300000000002,121.366699999999990,7.700000000000000,0.4962720,116.1579971,-79.3524017,40.0956993,10173.5000000,337.8739929,49.6730995,1202,26,-719918.474969999980000,605490.308276999970000
111,Lingyuan,41.240000000000002,119.401100000000000,7.900000000000000,0.1877190,105.4199982,-99.3470001,38.1109009,10189.2001953,313.5610046,52.0516014,1055,396,-881122.825333000040000,629861.042738000050000
112,Lushun,38.799999999999997,121.266700000000000,12.800000000000001,0.5672320,94.5920029,-75.8171997,44.9295998,10180.4003906,35.4598999,20.9153004,328,6,-753849.825236000000000,345041.974325000020000
113,Nanpiao,41.098199999999999,120.747900000000000,10.100000000000000,0.6089500,115.1859970,-85.2044983,39.1273003,10174.9003906,338.5339966,49.8437996,1932,94,-771874.271515000030000,602829.524160000030000
114,Nantai,40.924100000000003,122.804400000000000,19.500000000000000,1.2350100,64.3870010,-34.1399002,63.0583000,10179.5000000,272.9970093,33.9555016,1572,34,-602931.136886000050000,569117.201450999940000
115,Panshan,41.188099999999999,122.049400000000010,6.800000000000000,0.8431090,75.2744980,-47.4790993,56.2771988,10180.5996094,293.3219910,38.2108002,955,11,-663139.970456999960000,603161.545968999970000
116,Pulandian,39.395299999999999,121.966900000000000,12.300000000000001,0.5615810,90.3024979,-58.2053986,49.9157982,10180.7001953,98.5734024,25.1156006,1201,16,-687989.901791000040000,405695.761698000020000
117,Shenyang,41.792200000000001,123.432800000000000,21.199999999999999,1.6892700,66.9872971,-17.6292992,67.4290009,10157.0996094,220.4499969,49.9025993,1037,52,-543224.104465999990000,661254.139183999970000
118,Sujiatun,41.659199999999998,123.339200000000010,22.000000000000000,0.6852600,66.9091034,-20.1735001,66.6409988,10157.7998047,224.3760071,49.0540009,1029,41,-552073.468241999970000,647104.089980000050000
119,Wafangdian,39.618299999999998,122.008100000000000,11.900000000000000,0.6094720,85.0102005,-49.6360016,53.2900009,10181.0000000,160.8079987,29.0730991,1584,100,-682291.221175999960000,430064.471624000000000
120,Xiaoshi,41.297100000000000,124.120900000000010,40.299999999999997,0.3451960,64.3628998,-34.0290985,63.0988007,10171.0996094,301.1000061,31.1473007,1267,207,-490257.295525999970000,602940.293566999960000
121,Xingcheng,40.616700000000002,120.716700000000000,10.100000000000000,0.4388780,106.0960007,-74.8224030,42.8787003,10178.2998047,309.5050049,46.2694016,1460,10,-780104.216923999950000,550001.330702999960000
122,Xiuyan,40.292800000000000,123.274400000000000,21.699999999999999,1.4770200,63.6118011,-31.9712009,63.9434013,10178.2998047,220.3549957,34.3091011,1281,81,-569087.210515000040000,496522.751539000020000
123,Yebaishou,41.397500000000001,119.640800000000000,8.199999999999999,0.2815940,102.6429977,-102.3229980,38.0214996,10187.7001953,328.4450073,53.2260017,1372,414,-859336.761508999970000,645044.713723000020000
124,Yingkou,40.664800000000000,122.228300000000000,12.699999999999999,0.7895590,57.0047989,-15.0530996,71.4467010,10187.0000000,289.9949951,30.0018005,971,3,-653465.407145999950000,544193.592210000030000
125,Zhuanghe,39.700800000000001,122.991100000000000,17.300000000000001,1.0515900,69.7352982,-33.8742981,61.6176987,10179.9003906,208.4909973,32.9048996,1773,5,-598103.973010999970000,432733.419281999990000
126,Anqiu,36.434199999999997,119.192500000000000,14.800000000000001,0.5708960,126.6240005,-22.9622002,50.2868996,10183.9003906,81.2190018,37.8679008,1372,59,-961076.095777999960000,101714.677030000010000
127,Bianzhuang,34.848599999999998,118.044700000000010,16.500000000000000,0.9541270,211.1759949,-80.3818970,26.3904991,10170.2998047,301.0260010,23.2642994,2587,46,-1083013.536480000000000,-61358.786943100000000
128,Binzhou,37.366700000000002,118.016700000000000,4.800000000000000,0.3402440,162.8090057,-47.6389999,38.1095009,10182.4003906,84.7353973,36.8241997,1499,14,-1051257.954029999900000,216802.547752000010000
129,Boshan,36.483300000000000,117.833299999999990,21.699999999999999,0.4734200,189.9880066,-91.6433029,27.3311996,10177.0000000,307.0979919,28.5069008,2977,386,-1079543.090469999900000,121363.443248000000000
130,Changqing,36.557499999999997,116.727200000000000,12.500000000000000,0.5171410,199.3159943,-56.3272018,31.2178993,10175.7998047,343.9859924,11.8427000,1667,39,-1174872.585490000000000,142333.768545000000000
131,Chengtangcun,35.083599999999997,117.190700000000010,13.100000000000000,0.5060280,213.5989990,-70.5242996,27.4130001,10172.0000000,286.3880005,31.8356991,1870,73,-1155807.052760000100000,-25630.700765000001000
132,Chengyang,35.579400000000000,118.832800000000010,18.399999999999999,0.5250130,200.6869965,-69.7698975,29.0692997,10168.7001953,275.5530090,31.0324001,1446,112,-1003485.011510000000000,10897.383983000000000
133,Dengzhou,37.808199999999999,120.759100000000000,10.600000000000000,0.2322430,70.5130005,0.8094440,72.4086990,10192.0000000,345.8670044,30.0632992,1118,23,-808271.895004000050000,239414.936382999990000
134,Dezhou,37.451300000000003,116.310500000000000,10.300000000000001,0.0754239,181.5559998,9.6263504,46.1516991,10174.0996094,98.2006989,38.3401985,1245,24,-1196908.472110000000000,245799.643336000010000
135,Dongcun,36.776699999999998,121.159700000000000,8.800000000000001,0.4907840,132.0000000,17.9916000,59.5792007,10176.0000000,40.0061989,59.9990005,1302,38,-784196.705848000010000,121988.619525000000000
136,Dongdu,35.850000000000001,117.700000000000000,19.800000000000001,0.0005681,198.9459991,-91.0895004,26.3740997,10174.7001953,307.6140137,28.5347004,2085,200,-1100041.933230000100000,52992.721553299998000
137,Feicheng,35.260599999999997,117.967500000000000,16.100000000000001,0.2850770,214.9969940,-113.9290009,21.9888992,10169.0000000,319.9909973,20.0020008,1771,114,-1084419.181799999900000,-15034.394393099999000
138,Gaomi,36.383299999999998,119.752799999999990,11.699999999999999,0.1296580,143.8130035,-12.5552998,48.9822006,10175.4003906,217.6620026,24.9514008,1293,25,-912395.176043999960000,90704.091015300000000
139,Hanting,36.770800000000001,119.210800000000010,12.000000000000000,0.6811960,117.0070038,-10.0454998,55.8022995,10186.0000000,40.0391006,39.9977989,1732,17,-955290.598910999950000,138726.774846999990000
140,Jiaozhou,36.283900000000003,120.003300000000000,9.400000000000000,0.6863400,149.4600067,7.1974502,52.4553986,10170.2998047,298.0490112,13.8864002,1358,9,-891457.430662999980000,77394.146739300006000
141,Jiehu,35.542800000000000,118.455000000000000,18.399999999999999,0.7649370,202.9389954,-81.8626022,27.1345005,10171.2998047,295.3940125,25.7996998,1776,114,-1037454.769560000000000,10810.317833999999000
142,Jimo,36.389699999999998,120.462200000000000,8.699999999999999,0.2529760,149.6360016,19.6049995,55.5508995,10169.2001953,315.8269958,10.7482004,1473,26,-849767.889810999970000,84999.775823499993000
143,Jinan,36.668300000000002,116.997200000000010,12.699999999999999,0.3012070,199.9969940,-58.9836998,30.7282009,10176.0000000,359.9689941,10.0037003,1310,33,-1149735.806150000100000,151320.385313000010000
144,Jining,35.405000000000001,116.581400000000000,18.899999999999999,0.7095570,219.7559967,-79.2048035,25.5949993,10172.0000000,286.2239990,38.7313995,1284,43,-1205014.292470000000000,17164.925172600000000
145,Laiwu,36.192799999999998,117.656899999999990,22.800000000000001,0.0497626,193.6089935,-95.4185028,26.4122009,10176.4003906,316.1319885,28.5098991,1919,181,-1099045.218099999900000,91291.086003999997000
146,Laixi,36.859200000000001,120.526900000000000,8.500000000000000,0.1342030,127.0100021,0.8664260,56.2048988,10177.7998047,147.4539948,38.5699005,1982,54,-838930.641972000010000,136388.218320999990000
147,Laiyang,36.975800000000000,120.713600000000000,8.300000000000001,0.5798840,122.9459991,3.2451100,57.8708992,10178.9003906,99.7253036,47.4429016,1667,40,-821286.485637999950000,147700.129562999990000
148,Linqu,36.515599999999999,118.539700000000000,15.400000000000000,0.6975030,167.6479950,-69.7136993,33.5242996,10179.4003906,231.0279999,32.5351982,1635,102,-1017304.710850000000000,117330.331278000000000
149,Linyi,35.063099999999999,118.342800000000000,17.199999999999999,0.6729140,210.7980042,-82.9141998,26.1061993,10169.7001953,300.6570129,22.4099007,1625,71,-1053626.547100000100000,-40949.596164800001000
150,Longgang,37.651800000000001,120.330600000000000,7.700000000000000,0.2511500,72.0139999,0.9394470,71.9598999,10194.0000000,40.4388008,30.0018997,1198,4,-847190.328098000030000,225756.403872000000000
151,Luofeng,37.365000000000002,120.410000000000000,6.800000000000000,0.7960390,76.7481995,-2.5363700,69.2836990,10192.5000000,71.3855972,30.7654991,1745,68,-843533.742516000060000,193350.572340999990000
152,Mengyin,35.706899999999997,117.926400000000000,18.899999999999999,0.3922860,203.1719971,-94.3007965,25.4944992,10172.7998047,309.6539917,25.8796005,2273,183,-1082043.267870000100000,34670.796525999998000
153,Mingshui,36.716700000000003,117.500000000000000,15.000000000000000,0.3588800,191.2079926,-58.6292000,31.9615993,10176.7998047,291.5740051,19.4078007,1709,73,-1105303.324790000000000,150839.047495000010000
154,Mizhou,35.994700000000002,119.397499999999990,18.399999999999999,0.1940990,178.1190033,-49.8853989,35.2781982,10170.7001953,241.8289948,32.6800995,1406,62,-948368.897252999940000,51134.852275500001000
155,Nanding,36.748300000000000,118.055800000000000,15.000000000000000,0.0694753,177.1540070,-68.0270996,32.4365005,10178.4003906,242.2319946,30.0240002,1399,71,-1056453.181260000000000,148161.328237999990000
156,Nanma,36.184800000000003,118.154900000000000,20.300000000000001,0.2375990,193.9989929,-129.9660034,22.1882000,10177.0000000,339.9939880,29.9999008,1434,283,-1055457.610820000100000,84904.845266699995000
157,Ninghai,37.384200000000000,121.608600000000000,10.800000000000001,0.3162360,101.5059967,-8.2794104,60.3040009,10182.2998047,188.1889954,42.6016998,1346,13,-738725.524067000020000,185747.248452000000000
158,Ningyang,35.764200000000002,116.791400000000000,17.199999999999999,0.5171520,220.0229950,-82.4384003,25.1630993,10172.0996094,288.1950073,39.2431984,1582,64,-1181183.469020000000000,54165.597041100002000
159,Pingdu,36.784399999999998,119.946400000000000,9.100000000000000,0.4061490,129.5509949,-10.2931995,52.7210007,10179.4003906,172.2519989,29.4925995,1443,56,-890696.219930000020000,133264.704266999990000
160,Pingyi,35.500599999999999,117.630799999999990,16.600000000000001,0.6179960,211.5030060,-93.8556976,24.6602993,10170.5000000,308.1250000,23.9300003,1797,153,-1110987.916120000000000,15236.026531400001000
161,Pingyin,36.283099999999997,116.445300000000000,15.800000000000001,0.4210420,205.7319946,-55.0117989,30.5692005,10172.5996094,238.8890076,22.0083008,1267,44,-1203608.806889999900000,115553.887673000000000
162,Qingdao,36.066000000000003,120.369400000000000,10.199999999999999,0.2031820,150.0820007,16.3890991,54.6156998,10169.2998047,314.7560120,11.1127996,1866,42,-861516.820681000010000,49997.176948900000000
163,Qingyang,37.495800000000003,121.258100000000000,11.300000000000001,0.7275720,92.5589981,-7.8037400,62.9188995,10186.2001953,202.9689941,36.8577995,1031,9,-768199.858330999970000,200811.860374999990000
164,Qingzhou,36.696700000000000,118.479699999999990,13.199999999999999,0.4848460,157.1679993,-56.0284996,37.5033989,10180.5996094,187.6670074,33.5842018,1420,98,-1020160.905790000000000,137951.215201999990000
165,Qufu,35.596699999999998,116.991100000000000,17.100000000000001,0.7330430,220.7259979,-84.9105988,24.7849998,10172.0000000,289.7019958,39.7943001,1666,69,-1166080.832400000000000,33303.635509300002000
166,Rizhao,35.427500000000002,119.455299999999990,18.199999999999999,0.3988960,216.9649963,-99.6163025,23.4172993,10160.0000000,289.9479980,39.9808006,1436,19,-949994.136260000060000,-12126.173636300000000
167,Shanting,35.075299999999999,117.457800000000010,11.500000000000000,0.4892450,212.6230011,-82.8246002,25.9158993,10170.7001953,301.0610046,25.5118008,2458,147,-1132211.700140000100000,-29680.588025400000000
168,Shengli,37.462699999999998,118.491699999999990,6.900000000000000,0.6777760,149.5489960,-42.0239983,41.4887009,10181.9003906,129.6849976,34.1646004,1574,8,-1008867.480550000000000,222374.244140000000000
169,Shizilu,35.171100000000003,118.828900000000000,18.500000000000000,0.4883070,208.8769989,-52.9566002,30.4645996,10167.5996094,263.0000000,24.7893009,1471,102,-1008922.982040000000000,-34165.618891200000000
170,Shouguang,36.880000000000003,118.737500000000000,12.500000000000000,0.1895290,127.6979980,-27.0153008,49.0889015,10184.2998047,82.0413971,37.8592987,1469,25,-995246.318223000040000,155523.904157000010000
171,Sishui,35.648899999999998,117.275800000000000,16.899999999999999,0.4768410,215.1280060,-80.1644974,25.9792004,10172.2998047,288.9519958,35.4687996,1323,114,-1140242.277650000100000,35689.693850000003000
172,Suozhen,36.953899999999997,118.104699999999990,10.100000000000000,0.5302680,167.4040070,-54.1882019,36.1911011,10179.9003906,181.7449951,31.9001007,1919,20,-1049364.449150000000000,170317.387057999990000
173,Tai'an,36.185299999999998,117.120000000000000,15.600000000000000,0.5850720,200.3589935,-65.3303986,29.7476006,10175.0000000,300.2820129,22.8789997,1150,140,-1146170.442379999900000,96647.454861699996000
174,Taozhuang,34.850000000000001,117.333299999999990,11.699999999999999,0.3714410,213.6309967,-59.6841011,28.8964996,10172.0996094,282.0820007,31.4099007,4065,52,-1146415.623020000100000,-53068.949453100002000
175,Tianfu,37.197200000000002,122.052300000000000,8.000000000000000,0.6253170,90.6075974,-7.3012800,63.6254997,10180.7998047,261.9060059,45.9788017,1336,41,-701664.728496999950000,161756.973100000000000
176,Weichanglu,37.180700000000002,119.942200000000000,4.400000000000000,0.1510790,99.0289001,-11.6014004,60.0259018,10187.5996094,111.1100006,32.2545013,1569,45,-886435.118966000040000,177121.458772999990000
177,Weifang,36.710000000000001,119.101900000000000,13.000000000000000,0.4160950,117.1399994,-10.5374002,55.6394005,10186.0000000,40.6501999,39.9654007,1050,30,-965581.346428000020000,133082.444408999990000
178,Weihai,37.509099999999997,122.113600000000010,17.699999999999999,0.8219910,83.2282028,-8.6841602,65.3516998,10181.0996094,295.4490051,45.9299011,-1810,12,-693400.142181999980000,195870.717469000000000
179,Wenshang,35.727499999999999,116.496100000000000,17.100000000000001,0.6303690,218.4060059,-75.5995026,26.2010002,10172.0000000,278.7890015,37.2527008,2405,44,-1207662.153329999900000,53741.295204900001000
180,Xiazhen,34.802199999999999,117.111700000000000,13.100000000000000,0.3451300,215.6660004,-50.1106987,30.0091991,10172.5000000,274.1380005,34.6594009,2526,37,-1166812.387069999900000,-55709.124147000002000
181,Xiazhuang,34.916100000000000,118.638900000000010,18.800000000000001,0.3914330,209.3379974,-48.3193016,31.0948009,10168.5000000,261.4249878,22.8178997,1789,61,-1029066.460140000000000,-60344.376414600003000
182,Xindian,36.797499999999999,118.294400000000000,11.100000000000000,0.2589790,164.8489990,-58.7121010,35.8008995,10179.7998047,204.1970062,32.1786995,2886,73,-1034982.316020000000000,151030.849605000000000
183,Xintai,35.900599999999997,117.751900000000010,20.399999999999999,0.2757560,196.9869995,-95.6259995,26.0058994,10175.2998047,313.3359985,28.7635994,1618,198,-1094771.907560000000000,57990.302985000002000
184,Yantai,37.476500000000001,121.440800000000000,11.000000000000000,0.2968670,96.9207001,-9.0632401,61.3297997,10184.4003906,196.2250061,39.1808014,1948,24,-752460.247626999980000,197250.284143000000000
185,Yanzhou,35.552799999999998,116.828599999999990,17.600000000000001,0.6163200,220.9989929,-85.9843979,24.6257992,10172.0000000,289.9979858,39.9990005,1472,54,-1181038.072170000100000,30422.311246300000000
186,Yatou,37.156599999999997,122.437600000000000,9.699999999999999,0.6135520,79.1727982,-3.6884799,68.1540985,10180.2998047,325.8800049,48.7608986,1728,13,-668210.269392000050000,154550.919111000000000
187,Yinzhu,35.878599999999999,119.975300000000000,25.399999999999999,0.3722650,170.3670044,-28.4333992,40.4483986,10168.7998047,279.3710022,24.6422997,1466,8,-898548.767436999940000,32823.788514799999000
188,Yishui,35.784700000000001,118.628100000000000,18.600000000000001,0.5714260,192.5870056,-79.1517029,28.7430992,10173.5000000,287.7040100,29.5955009,1588,152,-1019014.041170000000000,35696.927824799997000
189,Yucheng,34.928899999999999,116.465300000000000,15.600000000000000,0.4007390,215.5500031,-51.7649994,29.7845993,10172.2001953,267.5000000,31.9769001,2348,36,-1222382.119290000100000,-33827.600928699998000
190,Zaozhuang,34.864699999999999,117.554199999999990,11.800000000000001,0.6003970,212.4230042,-71.4632034,27.4242992,10171.2001953,293.5029907,27.1205997,1358,81,-1126539.770270000000000,-54023.371577799997000
191,Zhoucheng,35.912199999999999,116.311700000000000,16.300000000000001,0.7897520,214.6809998,-61.7024994,28.4869995,10170.9003906,224.8630066,29.1518002,3303,42,-1220996.249469999900000,76377.091390799993000
192,Zhoucun,36.816699999999997,117.816700000000000,14.400000000000000,0.1224270,179.7819977,-61.0563011,33.1786003,10178.2998047,231.1979980,27.9993000,2487,48,-1076323.786820000000000,158322.592054999990000
193,Zhuangyuan,37.305500000000002,120.827500000000000,8.500000000000000,0.6000000,95.9623032,-3.4916999,63.2397003,10186.4003906,135.7619934,37.5172997,1489,133,-807771.655543999980000,183231.800424999990000
194,City,35.994999999999997,119.402600000000010,18.600000000000001,0.2636930,178.0650024,-49.7233009,35.3142014,10170.7001953,241.9869995,32.6455994,1520,67,-947914.323987000040000,51118.405880400001000
195,Zibo,36.790599999999998,118.063300000000000,14.199999999999999,0.1983440,174.7989960,-64.0906982,33.4035988,10178.7998047,228.1860046,30.3253002,1456,50,-1055217.132610000000000,152747.175625000000000
196,Zoucheng,35.400599999999997,116.965599999999990,16.699999999999999,0.6247480,220.1999969,-82.9373016,25.0825996,10172.0000000,289.0509949,39.3334999,1479,77,-1171182.646220000000000,11997.316239800000000
197,Songjiang,31.035900000000002,121.214600000000000,50.600000000000001,0.5591890,188.8200073,0.9964240,42.9520988,10209.5000000,181.4170074,29.5884991,2733,1,-833727.227357000000000,-513620.626549999990000
198,Zhujiajiao,31.107600000000001,121.057000000000000,55.399999999999999,0.6323320,189.6269989,0.9809710,42.8004990,10208.9003906,182.5070038,28.8237991,2760,9,-847923.148454000010000,-504347.264940000020000
199,Hangu,39.248899999999999,117.789199999999990,8.300000000000001,0.3846820,169.6549988,-78.0547028,31.9015999,10171.2001953,94.9647980,20.0631008,1126,2,-1043477.754590000000000,426655.569089000000000
200,Tanggu,39.021099999999997,117.646900000000000,7.800000000000000,0.7829840,180.6109924,-80.8031998,30.0177994,10170.9003906,61.6402016,15.3523998,1446,16,-1058870.203950000000000,403114.119592999980000
201,Xianshuigu,38.984999999999999,117.382800000000000,8.600000000000000,0.3372940,189.3130035,-87.0898972,28.0333004,10169.4003906,28.4631004,11.0282001,1128,5,-1081696.683530000000000,402040.575913999990000
202,Yangcun,39.363900000000001,117.060300000000000,11.199999999999999,0.2947530,187.6490021,-87.1262970,28.2294006,10169.7998047,44.1623001,12.7826996,1742,5,-1102920.337110000000000,447332.044037999990000
203,Yangliuqing,39.137500000000003,116.999700000000000,13.800000000000001,0.7645420,190.7290039,-89.3765030,27.5508003,10169.0996094,21.8754005,10.2163000,1713,7,-1111579.857730000000000,423126.473011000020000
204,Deqing,30.544899999999998,119.959900000000000,27.699999999999999,0.8031460,203.7299957,27.1725998,45.5505981,10202.9003906,186.6450043,13.9035997,2091,11,-956525.377569000000000,-556246.509290999970000
205,Fuyang,30.053300000000000,119.951899999999990,15.900000000000000,0.5488390,204.4980011,30.7245007,46.1571999,10203.9003906,188.1950073,12.2088003,2539,22,-962091.213066000030000,-610309.570167000060000
206,Hangzhou,30.293600000000001,120.161400000000000,19.500000000000000,1.2791400,211.4190063,33.3623009,45.3692017,10202.2998047,180.5709991,10.5265999,1993,14,-939936.843270999960000,-585891.292210999990000
207,Huzhou,30.870300000000000,120.093300000000000,42.100000000000001,0.5994390,200.1670074,21.7378998,45.0926018,10202.0996094,178.8679962,16.6389008,2007,11,-940765.358088999990000,-521682.098470000030000
208,Jiaxing,30.752199999999998,120.750000000000000,45.600000000000001,0.4068710,195.7799988,24.0484009,46.4440002,10205.2998047,180.6009979,18.6037998,2544,8,-880046.887801000030000,-540838.133034999950000
209,Lianghu,29.991499999999998,120.898400000000000,27.000000000000000,0.3901260,201.4349976,25.8257008,45.7114983,10206.9003906,158.1499939,12.3780003,5087,19,-872812.846380000000000,-626024.240901999990000
210,Linping,30.422499999999999,120.297200000000000,25.100000000000001,0.8258000,211.4579926,33.2891998,45.3462982,10202.2998047,180.2790070,10.5735998,2255,18,-925867.428333000050000,-572989.826724000040000
211,Shangyu,30.015599999999999,120.871100000000000,27.399999999999999,0.3378060,202.3899994,26.9654999,45.7675018,10206.4003906,161.5379944,12.3013000,2819,13,-875196.071925999950000,-623124.405406999980000
212,Shaoxing,30.002400000000002,120.578599999999990,25.300000000000001,0.4682160,209.8869934,31.0762005,45.1837997,10203.2998047,175.0099945,10.6630001,1817,20,-903109.256917000050000,-621910.368252999960000
213,Xiaoshan,30.167500000000000,120.258799999999990,19.000000000000000,0.5355520,212.5339966,34.4001007,45.3726006,10202.0996094,179.9900055,10.1387997,1805,13,-931916.377977999970000,-600716.017918000000000
214,Xiashi,30.536300000000001,120.686400000000010,35.799999999999997,0.7970190,206.0460052,30.7656002,45.8624001,10203.5000000,179.1929932,12.8445997,2667,8,-888024.833409999960000,-564068.160079000050000
215,Yuyao,30.050000000000001,121.149400000000000,27.800000000000001,0.3935760,189.6210022,33.9345016,49.9291992,10209.5996094,156.7019958,16.2744999,1955,41,-848436.589278999950000,-621794.540111999960000
216,Zhicheng,31.005400000000002,119.904900000000000,42.299999999999997,0.4857120,203.1869965,19.4726009,44.0469017,10200.4003906,162.8159943,15.8336000,1739,13,-957118.869679000000000,-504953.891230000010000
217,Zhoushan,29.988700000000001,122.204899999999990,18.600000000000001,0.3816300,145.9920044,89.3219986,77.7230988,10222.0000000,110.3430023,20.1229992,2712,2,-748384.488952000040000,-637197.884589000020000
218,Busan,35.102800000000002,129.040300000000000,19.300000000000001,0.3977820,104.9990005,-11.9933004,58.3320999,10186.0000000,266.9979858,62.9961014,-565,0,-87296.467489000002000,-99325.362726599997000
219,Asan,36.783600000000000,127.004200000000000,16.000000000000000,1.8554699,75.9369965,-9.5278797,67.2794037,10192.5000000,302.8359985,34.4557991,2159,25,-266660.285608000010000,91223.949603800007000
220,Cheonan,36.806500000000000,127.152199999999990,21.399999999999999,1.6699800,82.9670029,-28.0386009,59.6777000,10190.9003906,295.8009949,26.3043995,2291,45,-253421.963381999990000,93373.957664999994000
221,Gongju,36.455599999999997,127.124700000000000,18.100000000000001,1.6268800,84.2371979,-19.7660007,61.7191010,10192.5996094,281.2590027,22.2819996,2802,23,-257034.861233000000000,54449.069834599999000
222,Hongsung,36.600900000000003,126.665000000000010,15.300000000000001,0.9754160,65.7968979,-6.1097398,71.6038971,10197.0000000,281.7009888,30.6949997,2216,32,-297526.698693000010000,71903.607357000001000
223,Seosan,36.781700000000001,126.452200000000000,14.199999999999999,1.4211500,62.0290985,-5.0624199,73.2080002,10200.0000000,311.8489990,34.9799995,2076,35,-315744.475276999990000,92661.878106400007000
224,Taisen-ri,36.349299999999999,126.597700000000000,18.100000000000001,1.1012700,61.0872993,1.9022501,75.9804993,10194.0000000,200.6869965,21.0795994,2102,10,-304510.735275999990000,44154.040698999997000
225,Daegu,35.870300000000000,128.591100000000010,19.399999999999999,0.7839570,116.9779968,-31.8878994,50.2924995,10177.0000000,339.9330139,15.0042000,1833,45,-126931.739931000000000,-13503.903529200001000
226,Hwawon,35.801699999999997,128.500800000000000,19.699999999999999,0.8022290,114.7300034,-27.1938000,51.9529991,10177.9003906,332.1319885,15.5822001,2420,36,-135182.154841000010000,-21009.217218700000000
227,Daejeon,36.321399999999997,127.419700000000010,21.699999999999999,1.4013900,91.9804993,-36.7416992,54.9514999,10193.0000000,262.0840149,12.0370998,2325,71,-231080.980978000010000,38795.065071199999000
228,Chuncheon,37.874699999999997,127.734200000000000,33.600000000000001,1.5060400,73.7119980,-35.1739006,60.1702995,10179.0996094,231.9900055,22.2077999,1672,96,-198812.868504000010000,210720.627077999990000
229,Hongch'on,37.691800000000001,127.885700000000000,34.299999999999997,1.3269800,72.2166977,-24.1485004,63.8283005,10184.7998047,231.7550049,19.3773003,2886,137,-185985.413009000010000,190100.247605999990000
230,Kang-neung,37.755600000000001,128.896099999999990,20.699999999999999,0.2203490,75.4704971,-41.8591995,57.7713013,10177.0996094,230.2109985,46.0968018,2078,15,-97037.505140800000000,195723.145717000010000
231,Kosong,38.378799999999998,128.467600000000000,22.399999999999999,0.8141200,70.9792023,-27.9461994,63.0345001,10174.5000000,312.1409912,17.5561008,2706,21,-133554.189936000010000,265471.339570000010000
232,Sokcho,38.207000000000001,128.591800000000010,21.199999999999999,0.9682310,70.9467010,-30.8843002,62.1633987,10174.0000000,319.5390015,15.1389999,1896,21,-123022.893968000000000,246223.120739000010000
233,Tonghae,37.543900000000001,129.106900000000000,20.699999999999999,1.0045100,75.7662964,-57.1800003,53.5741997,10177.0000000,308.1870117,11.3610001,2980,20,-78733.079214800004000,172005.319962999990000
234,Wonju,37.351399999999998,127.945300000000000,39.700000000000003,1.6693701,76.6650009,-23.4438992,62.7621002,10186.2001953,241.2539978,9.6182804,2063,135,-181571.455992000000000,152161.355573999990000
235,Gwangju,35.154699999999998,126.915600000000000,16.000000000000000,0.7233100,99.9819031,-11.9347000,59.6748009,10200.0000000,248.0209961,35.9860001,1824,49,-280262.903066000030000,-89549.900435100004000
236,Ansan-si,37.323599999999999,126.821900000000000,18.100000000000001,1.0752500,62.8358994,-12.9139004,70.2760010,10196.4003906,278.0750122,29.8143997,2043,15,-280865.129556000000000,151737.038673000000000
237,Anseong,37.010800000000003,127.270300000000010,25.100000000000001,1.5718600,74.0087967,-15.3439999,66.0220032,10192.7001953,298.3089905,32.9481010,2205,36,-242270.840883000000000,115777.321888000010000
238,Anyang-si,37.392499999999998,126.926900000000000,16.800000000000001,1.4690000,63.5098991,-16.3241997,68.9344025,10196.5000000,280.0509949,30.0499992,1881,53,-271345.576339000020000,159094.363241999990000
239,Bucheon-si,37.498899999999999,126.783100000000000,21.399999999999999,1.0086000,60.9949989,-11.4060001,71.3824005,10194.9003906,260.2680054,28.5582008,2141,16,-283625.994746999990000,171324.140626999990000
240,Gapyeong,37.831000000000003,127.510600000000000,32.100000000000001,1.3230200,71.0830002,-25.6392002,63.7033005,10184.2001953,230.3500061,22.2700005,3625,69,-218550.388928000000000,206344.381813000010000
241,Goyang-si,37.656399999999998,126.834999999999990,18.399999999999999,1.3937401,64.8072968,-23.9757004,66.0746002,10195.0996094,268.9989929,29.9568996,1887,18,-278465.155044000010000,188670.467085000010000
242,Guri-si,37.598599999999998,127.139399999999990,21.199999999999999,1.6606600,66.3153992,-26.6166992,64.7985992,10194.2998047,270.8200073,30.3530998,2021,33,-251902.488790000000000,181421.377431000000000
243,Gwangju,37.409999999999997,127.257200000000000,19.199999999999999,1.4921600,68.1122971,-28.0967007,63.8167992,10194.5000000,273.6629944,28.3932991,1748,48,-242148.139018999990000,160168.721825999990000
244,Hanam,37.539999999999999,127.205600000000000,20.699999999999999,1.4477500,66.6865997,-25.7618999,64.9536972,10194.0996094,269.6679993,29.5431004,1966,33,-246271.320012999990000,174741.798879000010000
245,Hwado,37.652500000000003,127.307500000000000,23.199999999999999,1.4313300,66.7923965,-25.9929008,64.8507996,10192.9003906,257.1919861,28.0702000,1937,84,-236939.081940000000000,186988.050317999990000
246,Hwaseong-si,37.206800000000001,126.816900000000000,18.500000000000000,1.3489900,64.9375000,-12.8697004,69.6193008,10196.0000000,286.9020081,30.9370995,2338,22,-281743.196016000000000,138774.827418000000000
247,Icheon-si,37.279200000000003,127.442500000000000,21.000000000000000,1.3810000,70.9981995,-55.3343010,55.2403984,10195.0000000,270.0150146,26.0072994,2159,70,-226193.852049999990000,145189.539202000010000
248,Kwangmyong,37.477200000000003,126.866400000000000,19.600000000000001,0.8021700,64.8934021,-20.9451008,67.0105972,10194.5996094,271.7290039,30.1296997,1928,27,-276369.335280000000000,168674.193911000010000
249,Namyangju,37.636699999999998,127.214200000000010,21.100000000000001,1.2122800,66.0758972,-26.0135002,65.0566025,10194.0996094,264.1250000,29.5643005,3073,61,-245195.237029000010000,185463.437173999990000
250,Osan,37.152200000000001,127.070600000000000,16.600000000000001,1.7631900,69.4759979,-17.3551998,66.7558975,10193.4003906,298.8970032,31.3882008,1840,22,-259495.561735000000000,132003.901561000010000
251,Pubal,37.291699999999999,127.507800000000000,26.000000000000000,1.2783700,71.0024033,-55.3339996,55.2393990,10195.0000000,269.9809875,25.9974995,1910,58,-220385.580827000000000,146428.995755999990000
252,Seongnam-si,37.438600000000001,127.137800000000000,17.000000000000000,1.5433199,66.0550003,-22.8225994,66.0616989,10195.0000000,276.1889954,29.8560009,1906,77,-252584.283574000000000,163649.398670000000000
253,Suwon-si,37.291100000000000,127.008900000000000,16.699999999999999,1.8299800,62.0896988,-13.2089005,70.4172974,10197.9003906,285.0060120,30.0142994,2011,58,-264468.745027000030000,147603.102553000000000
254,Uijeongbu-si,37.741500000000002,127.047400000000000,21.699999999999999,1.7336000,63.2374001,-27.3792992,65.4763031,10196.7001953,256.5719910,31.5820007,2095,49,-259496.727301000010000,197537.588737999990000
255,Wabu,37.589700000000001,127.220299999999990,21.300000000000001,1.2411799,66.4390030,-25.9419994,64.9711990,10194.0000000,266.1960144,29.4391003,2055,34,-244813.438930000000000,180226.482698999990000
256,Yangju,37.833100000000002,127.061700000000000,22.000000000000000,1.5296201,61.1787987,-30.7124996,65.0494003,10198.7998047,245.1719971,34.4051018,2121,75,-257921.141402000010000,207674.788342999990000
257,Yangp'yong,37.489699999999999,127.490600000000000,23.699999999999999,1.5223401,70.4095001,-32.8961983,61.7179985,10192.2998047,261.2409973,25.1396999,1878,39,-221320.277787000000000,168469.498725999990000
258,Andong,36.566400000000002,128.722700000000000,23.500000000000000,0.6335370,87.0009003,-24.9801006,59.4560013,10187.0000000,277.9930115,28.9953003,1806,97,-114058.170284000010000,63723.997986499999000
259,Eisen,35.967500000000001,128.930800000000000,19.500000000000000,0.5319590,109.9940033,-20.5676003,54.7659988,10179.7998047,307.6019897,17.9234009,2195,84,-96213.026804599998000,-3085.976170550000000
260,Gimcheon,36.121800000000000,128.119800000000000,28.100000000000001,0.4066610,95.0305023,-20.0846996,58.6981010,10184.7001953,302.5780029,16.0946999,2376,80,-168839.902938000010000,15171.352394899999000
261,Gumi,36.113599999999998,128.336000000000010,23.100000000000001,0.8144500,105.9889984,-14.0303001,57.5158005,10184.0000000,326.9620056,10.0101995,3163,62,-149446.798960999990000,13906.778870700000000
262,Gyeongsan-si,35.823300000000003,128.737799999999990,16.600000000000001,0.7158740,115.6389999,-28.4430008,51.4346008,10177.5000000,335.1419983,15.4435997,2082,58,-113784.802793000000000,-18910.437037100000000
263,Kyonju,35.842799999999997,129.211700000000010,18.100000000000001,0.3491230,111.5449982,-14.9884005,55.8513985,10178.5000000,294.0109863,17.5671997,2404,43,-71049.709449300004000,-17191.666829000002000
264,Mungyeong,36.594600000000000,128.199500000000000,33.299999999999997,0.4220710,87.6194000,-15.1062002,62.1455002,10186.4003906,283.7730103,17.0967999,2114,78,-160706.141146999990000,67596.384858999998000
265,Pohang,36.029200000000003,129.364800000000000,16.600000000000001,0.5511290,119.9950027,-18.9915009,52.7753983,10178.0000000,270.0079956,20.9993000,2289,5,-57116.549027900001000,3432.830583510000000
266,Sangju,36.415300000000002,128.160599999999990,32.399999999999999,1.6199501,88.0014038,-10.0249004,63.5523987,10186.0000000,290.0000000,15.0018997,1912,60,-164557.715472000010000,47729.314386300000000
267,Changnyeong,35.541400000000003,128.495100000000010,20.500000000000000,0.2457130,102.5540009,-12.2318001,58.9076996,10183.2001953,264.7340088,21.1243992,3159,66,-136139.248079999990000,-49939.991313300001000
268,Changwon,35.228099999999998,128.681099999999990,18.899999999999999,0.2553760,95.6430969,-8.6834698,61.7938995,10185.2001953,218.4149933,14.9104004,2478,29,-119780.431493000000000,-85014.177495700002000
269,Chinju,35.192799999999998,128.084700000000000,18.800000000000001,0.7073650,107.8880005,6.6851201,62.8926010,10189.0000000,200.3309937,15.1690998,2361,34,-174003.147476000010000,-88039.538704100007000
270,Kimhae,35.234200000000001,128.881100000000000,20.500000000000000,0.7869260,102.2050018,-9.0092297,59.9081993,10185.7998047,254.9669952,46.6015015,2175,11,-101611.619888000000000,-84563.156195899996000
271,Kyosai,34.850299999999997,128.588600000000010,20.800000000000001,0.2336390,97.1677017,25.2539005,71.9749985,10194.9003906,204.2400055,53.2094994,3257,10,-128773.543899000000000,-126893.622431000000000
272,Miryang,35.493299999999998,128.748899999999990,19.600000000000001,0.7117020,102.3290024,-11.4685001,59.1809998,10183.5000000,267.6640015,23.3892002,2758,14,-113251.348019000000000,-55612.157902500003000
273,Naeso,35.249699999999997,128.520000000000010,22.000000000000000,0.7207110,95.3555984,-8.6745195,61.8764000,10185.2001953,216.3190002,13.2849998,2951,63,-134372.412998999990000,-82402.921082500005000
274,Sinhyeon,34.882500000000000,128.626700000000000,20.800000000000001,0.5976030,97.3451996,19.3507996,69.9654999,10193.7001953,208.6340027,49.3549995,4526,17,-125248.992201000000000,-123364.021385000000000
275,Ungsang,35.406100000000002,129.168600000000000,17.100000000000001,0.3391790,104.1399994,-9.4083900,59.2789993,10180.2998047,302.8779907,24.0086994,2726,101,-75344.444378000000000,-65712.919000700000000
276,Yangsan,35.341999999999999,129.033600000000010,16.800000000000001,0.7454560,103.3300018,-9.4523001,59.4818993,10184.5000000,271.0589905,43.1203995,2503,6,-87647.138681299999000,-72726.574276300002000
277,Incheon,37.456499999999998,126.705200000000000,20.899999999999999,1.1459700,57.4117012,0.3952450,76.7235031,10195.0000000,250.2389984,27.1599998,1477,44,-290651.622404999970000,166843.466432999990000
278,Seogwipo,33.253300000000003,126.561800000000010,14.300000000000001,0.5213580,109.0009995,44.9870987,74.7930984,10208.0000000,230.0140076,31.0016994,4168,71,-319501.264517000000000,-299650.743921999990000
279,Gunsan,35.978600000000000,126.711400000000000,20.600000000000001,1.6429700,67.0653000,20.0132008,80.4878006,10202.2001953,300.5450134,37.9524994,2391,12,-295741.066607000020000,2610.631246439999800
280,Iksan,35.943899999999999,126.954400000000010,20.800000000000001,1.2280700,70.5046997,8.0494804,74.9212036,10200.7998047,286.2300110,31.8260002,1959,19,-274030.066256000020000,-1955.799107670000000
281,Jeonju,35.821899999999999,127.148900000000000,22.199999999999999,1.0279000,72.0376968,-0.0182337,71.6279984,10201.0000000,275.9729919,26.9986992,1998,44,-256940.211606000000000,-16044.434786200000000
282,Koch'ang,35.433300000000003,126.700000000000000,16.500000000000000,0.8832760,75.2184982,6.1775599,72.6899033,10197.7998047,272.1669922,18.9410992,2704,43,-298802.089249000010000,-57950.817134600002000
283,Nangen,35.409999999999997,127.385800000000000,9.400000000000000,0.9647920,114.9940033,-41.9342003,48.3478012,10185.0000000,197.0169983,41.9958000,2181,102,-236822.824916000010000,-62424.450899600000000
284,Wanju,35.845100000000002,127.147499999999990,22.199999999999999,1.0088100,72.0267029,-0.0156588,71.6324997,10201.0000000,275.9830017,27.0000992,2030,53,-256991.121026999990000,-13462.258948100000000
285,Hwasun,35.061300000000003,126.987500000000000,15.699999999999999,0.6966550,98.6752014,-9.3799496,60.7571983,10198.7001953,250.9730072,34.3905983,2506,74,-274049.715183000020000,-100133.201472999990000
286,Kwangyang,34.975299999999997,127.589200000000010,15.400000000000000,0.6186430,102.2460022,-2.5378799,61.7594986,10189.2001953,259.4849854,30.7956009,2970,17,-219579.704911999990000,-111214.053707000000000
287,Muan,34.990099999999998,126.479000000000000,18.500000000000000,0.2042250,81.2022018,12.0317001,72.7154007,10205.2998047,263.0060120,26.0379009,3312,20,-320533.414047000000000,-106493.572809000000000
288,Suncheon,34.948099999999997,127.489500000000010,15.199999999999999,0.6976110,105.2870026,-10.0453997,58.7981987,10187.7998047,274.2349854,26.9827003,3470,16,-228730.762893000010000,-114007.705204000000000
289,Yeosu,34.762799999999999,127.665300000000000,15.000000000000000,0.5543760,90.2739029,35.0457001,77.6959991,10193.9003906,227.6100006,51.4100990,5272,14,-213202.565001000010000,-134999.326964000010000
290,Cheongju-si,36.637200000000000,127.489700000000000,32.399999999999999,1.4426500,91.9257965,-17.4265003,60.2818985,10190.0000000,327.5459900,26.9480991,1905,52,-223901.783912999990000,73731.954280899998000
291,Chinch'on,36.856699999999996,127.443299999999990,28.199999999999999,1.4007500,84.9194031,-30.9659996,58.3245010,10190.5996094,295.4960022,24.2089005,2041,71,-227386.274280999990000,98234.971409100006000
292,Okcheon,36.301200000000001,127.568000000000000,28.399999999999999,1.3841500,90.7772980,-29.5317001,57.1940002,10192.0996094,267.9349976,14.5243998,2462,96,-217864.506031000000000,36208.310117699999000
293,Seoul,37.566000000000003,126.978399999999990,20.699999999999999,1.5755800,66.9972000,-29.9575996,63.5732994,10194.0000000,275.9899902,30.9986000,1502,39,-266183.778116000000000,178227.546347000000000
294,Ulsan,35.537199999999999,129.316700000000000,15.900000000000000,0.8907390,105.0000000,-9.0587997,59.1491013,10176.0000000,334.5859985,9.1353302,1541,11,-61822.919240600000000,-51241.235208799997000